{
  "version": 0.6,
  "generator": "Overpass API 0.7.62.10 2d4cfc48",
  "osm3s": {
    "timestamp_osm_base": "2026-03-02T03:57:26Z",
    "copyright": "The data included in this document is from www.openstreetmap.org. The data is made available under ODbL."
  },
  "elements": [

{
  "type": "node",
  "id": 313140391,
  "lat": 27.7143297,
  "lon": 85.3284556,
  "tags": {
    "amenity": "restaurant",
    "building": "yes",
    "int_name": "Moskva Restaurant",
    "name": "Wunjala"
  }
},
{
  "type": "node",
  "id": 432195178,
  "lat": 27.6782359,
  "lon": 85.3129059,
  "tags": {
    "amenity": "restaurant",
    "cuisine": "regional",
    "name": "Mustang Thakali Kitchen",
    "phone": "9841202776"
  }
},
{
  "type": "node",
  "id": 432195183,
  "lat": 27.6783303,
  "lon": 85.3126120,
  "tags": {
    "amenity": "cafe",
    "name": "Hermann Helmers Bakery",
    "shop": "bakery"
  }
},
{
  "type": "node",
  "id": 435005609,
  "lat": 27.6739264,
  "lon": 85.3255321,
  "tags": {
    "amenity": "cafe",
    "email": "yalacafedutemple@gmail.com",
    "internet_access": "wlan",
    "name": "क्याफे डु टेम्पल",
    "name:en": "Cafe Du Temple",
    "name:ne": "क्याफे डु टेम्पल",
    "opening_hours": "Mo-Su 09:00-09:00",
    "phone": "015527127",
    "toilets:wheelchair": "no",
    "wheelchair": "no"
  }
},
{
  "type": "node",
  "id": 560500319,
  "lat": 27.7216632,
  "lon": 85.3613974,
  "tags": {
    "amenity": "restaurant",
    "cuisine": "regional",
    "name": "Baudha-Kitchen"
  }
},
{
  "type": "node",
  "id": 564125542,
  "lat": 27.6283629,
  "lon": 85.2620144,
  "tags": {
    "amenity": "restaurant",
    "cuisine": "regional",
    "name": "Dakshinkali Resort"
  }
},
{
  "type": "node",
  "id": 568545483,
  "lat": 27.7092855,
  "lon": 85.3164252,
  "tags": {
    "amenity": "restaurant",
    "cuisine": "regional",
    "name": "काठमाडौं भान्सा",
    "name:en": "Kathmandu Kitchen",
    "name:ne": "काठमाडौं भान्सा"
  }
},
{
  "type": "node",
  "id": 669249210,
  "lat": 27.6762062,
  "lon": 85.3133733,
  "tags": {
    "amenity": "restaurant",
    "cuisine": "japanese",
    "name": "DanRan Japanese Restaurant",
    "phone": "015521027",
    "source": "local_knowledge"
  }
},
{
  "type": "node",
  "id": 669269004,
  "lat": 27.6826497,
  "lon": 85.3062865,
  "tags": {
    "amenity": "cafe",
    "cuisine": "japanese",
    "email": "cafe_u@vianet.com.np",
    "name": "Cafe U",
    "phone": "015524202",
    "wifi": "no"
  }
},
{
  "type": "node",
  "id": 669512726,
  "lat": 27.6810649,
  "lon": 85.3104154,
  "tags": {
    "alt_name": "Bay 7",
    "amenity": "cafe",
    "cuisine": "coffee_shop",
    "name": "Bay 7 Restaurant & Bar",
    "wifi": "no"
  }
},
{
  "type": "node",
  "id": 669529181,
  "lat": 27.6759343,
  "lon": 85.3135256,
  "tags": {
    "amenity": "fast_food",
    "name": "Singma Food Court"
  }
},
{
  "type": "node",
  "id": 669530117,
  "lat": 27.6761258,
  "lon": 85.3135444,
  "tags": {
    "amenity": "cafe",
    "name": "Vesper Cafe"
  }
},
{
  "type": "node",
  "id": 669530248,
  "lat": 27.6760015,
  "lon": 85.3142368,
  "tags": {
    "amenity": "cafe",
    "name": "New Orleans Cafe"
  }
},
{
  "type": "node",
  "id": 669530474,
  "lat": 27.6762484,
  "lon": 85.3122280,
  "tags": {
    "amenity": "restaurant",
    "name": "Chapter 9 Bar/Restaurent"
  }
},
{
  "type": "node",
  "id": 671207877,
  "lat": 27.6770864,
  "lon": 85.3095229,
  "tags": {
    "amenity": "cafe",
    "name": "Cafe Columbus"
  }
},
{
  "type": "node",
  "id": 671207878,
  "lat": 27.6755584,
  "lon": 85.3128583,
  "tags": {
    "amenity": "restaurant",
    "contact:facebook": "https://www.facebook.com/lhakpaschulo",
    "cuisine": "american;italian;thai;steak_house;cake;chicken;coffee_shop;fine_dining;fish;fish_and_chips;international;pasta",
    "diet:vegetarian": "yes",
    "email": "lhakpaschulo@gmail.com",
    "internet_access": "wlan",
    "name": "लाक्पाज चुलो",
    "name:en": "Lhakpa’s Chulo",
    "opening_hours": "Tu-Su 10:00-10:00",
    "operator": "RSS"
  }
},
{
  "type": "node",
  "id": 671528357,
  "lat": 27.6853170,
  "lon": 85.3131761,
  "tags": {
    "amenity": "restaurant",
    "name": "जालान जालान मलेसियाली",
    "name:en": "Jalan Jalan Malaysian",
    "name:ne": "जालान जालान मलेसियाली"
  }
},
{
  "type": "node",
  "id": 675712062,
  "lat": 27.6782980,
  "lon": 85.3122961,
  "tags": {
    "amenity": "cafe",
    "name": "Manna Cafe"
  }
},
{
  "type": "node",
  "id": 708987886,
  "lat": 27.7153737,
  "lon": 85.3097712,
  "tags": {
    "amenity": "restaurant",
    "check_date": "2025-07-31",
    "cuisine": "regional",
    "name": "Delima Garden"
  }
},
{
  "type": "node",
  "id": 873531754,
  "lat": 27.6760518,
  "lon": 85.3126299,
  "tags": {
    "alt_name": "Chai Chai",
    "amenity": "cafe",
    "internet_access": "wlan",
    "name": "Cafe 16"
  }
},
{
  "type": "node",
  "id": 943246325,
  "lat": 27.7039312,
  "lon": 85.3060388,
  "tags": {
    "amenity": "restaurant",
    "name": "Kasthamandap Restaurant"
  }
},
{
  "type": "node",
  "id": 992508268,
  "lat": 27.7789840,
  "lon": 85.3623181,
  "tags": {
    "amenity": "cafe",
    "name": "Rest Point Cafe and Restaurant"
  }
},
{
  "type": "node",
  "id": 1044375800,
  "lat": 27.7217332,
  "lon": 85.3614154,
  "tags": {
    "amenity": "cafe",
    "name": "Cafe Du Temple"
  }
},
{
  "type": "node",
  "id": 1045848953,
  "lat": 27.7117585,
  "lon": 85.3093039,
  "tags": {
    "amenity": "restaurant",
    "name": "Everest Steak House"
  }
},
{
  "type": "node",
  "id": 1096317916,
  "lat": 27.6743179,
  "lon": 85.3182364,
  "tags": {
    "amenity": "cafe",
    "name": "Korean Taste Restaurant"
  }
},
{
  "type": "node",
  "id": 1143907481,
  "lat": 27.7283723,
  "lon": 85.3463634,
  "tags": {
    "amenity": "fast_food"
  }
},
{
  "type": "node",
  "id": 1341029283,
  "lat": 27.7639353,
  "lon": 85.4981579,
  "tags": {
    "amenity": "restaurant",
    "name": "Hotel Lama",
    "tourism": "hotel"
  }
},
{
  "type": "node",
  "id": 1349658488,
  "lat": 27.7160061,
  "lon": 85.3113855,
  "tags": {
    "amenity": "restaurant",
    "name": "मोमो स्टार",
    "name:en": "Momo Star",
    "name:ne": "मोमो स्टार"
  }
},
{
  "type": "node",
  "id": 1349658493,
  "lat": 27.7153399,
  "lon": 85.3116362,
  "tags": {
    "amenity": "cafe",
    "name": "Annapurna",
    "website": "https://annapurna-hotel.com/"
  }
},
{
  "type": "node",
  "id": 1349658498,
  "lat": 27.7162110,
  "lon": 85.3116812,
  "tags": {
    "amenity": "restaurant",
    "cuisine": "japanese",
    "internet_access": "wlan",
    "name": "मोमोटारु रेस्टुरेन्ट",
    "name:en": "Momotarou Restaurant",
    "name:ja": "桃太郎",
    "name:ne": "मोमोटारु रेस्टुरेन्ट",
    "opening_hours": "Mo-Su 10:00-21:30",
    "phone": "+977 4417670"
  }
},
{
  "type": "node",
  "id": 1349664587,
  "lat": 27.7139958,
  "lon": 85.3113644,
  "tags": {
    "amenity": "cafe",
    "name": "काठमाडौं टेरेस",
    "name:en": "Kathmandu Terrace",
    "name:ne": "काठमाडौं टेरेस"
  }
},
{
  "type": "node",
  "id": 1349680676,
  "lat": 27.7133125,
  "lon": 85.3121930,
  "tags": {
    "amenity": "cafe",
    "cuisine": "chinese",
    "name": "Omei"
  }
},
{
  "type": "node",
  "id": 1349680730,
  "lat": 27.7113583,
  "lon": 85.3087489,
  "tags": {
    "amenity": "cafe",
    "cuisine": "regional",
    "name": "Momo"
  }
},
{
  "type": "node",
  "id": 1349697691,
  "lat": 27.7154872,
  "lon": 85.3113788,
  "tags": {
    "amenity": "fast_food",
    "cuisine": "sandwich",
    "name": "Nepal fastfood"
  }
},
{
  "type": "node",
  "id": 1349697710,
  "lat": 27.7161351,
  "lon": 85.3099503,
  "tags": {
    "amenity": "cafe",
    "name": "निर्मला",
    "name:en": "Nirmala",
    "name:ne": "निर्मला"
  }
},
{
  "type": "node",
  "id": 1350468459,
  "lat": 27.6733205,
  "lon": 85.3255610,
  "tags": {
    "amenity": "cafe",
    "name": "Museum Cafe"
  }
},
{
  "type": "node",
  "id": 1350468491,
  "lat": 27.6721502,
  "lon": 85.3150917,
  "tags": {
    "amenity": "restaurant",
    "name": "Red Dingo"
  }
},
{
  "type": "node",
  "id": 1389188958,
  "lat": 27.6906972,
  "lon": 85.3179342,
  "tags": {
    "amenity": "cafe",
    "cuisine": "coffee",
    "name": "कफी स्टेशन",
    "name:en": "Coffee Station",
    "name:ne": "कफी स्टेशन"
  }
},
{
  "type": "node",
  "id": 1389193534,
  "lat": 27.6885061,
  "lon": 85.3321133,
  "tags": {
    "amenity": "fast_food",
    "name": "Indreni Fast Food",
    "toilets:wheelchair": "limited",
    "wheelchair": "no"
  }
},
{
  "type": "node",
  "id": 1390372808,
  "lat": 27.7141705,
  "lon": 85.3114087,
  "tags": {
    "amenity": "restaurant",
    "name": "Namaste Pub and Lounge"
  }
},
{
  "type": "node",
  "id": 1399507907,
  "lat": 27.7231911,
  "lon": 85.2939657,
  "tags": {
    "amenity": "cafe",
    "cuisine": "coffee",
    "internet_access": "yes",
    "name": "Cuppas Cafe"
  }
},
{
  "type": "node",
  "id": 1417852754,
  "lat": 27.5838111,
  "lon": 85.5133536,
  "tags": {
    "amenity": "restaurant",
    "designation": "restraurant/store",
    "source": "Garmin Orgeon 450 GPS"
  }
},
{
  "type": "node",
  "id": 1418080904,
  "lat": 27.5846803,
  "lon": 85.5150300,
  "tags": {
    "amenity": "cafe",
    "cuisine": "newari",
    "name": "Sorhakhutte Stupa View Restaurant",
    "source": "Garmin Orgeon 450"
  }
},
{
  "type": "node",
  "id": 1497531274,
  "lat": 27.6727379,
  "lon": 85.3139678,
  "tags": {
    "amenity": "cafe",
    "name": "The bakery cafe"
  }
},
{
  "type": "node",
  "id": 1497531288,
  "lat": 27.6725083,
  "lon": 85.3152217,
  "tags": {
    "amenity": "cafe",
    "name": "Alinas Bakery Cafe"
  }
},
{
  "type": "node",
  "id": 1498876002,
  "lat": 27.6968866,
  "lon": 85.3056048,
  "tags": {
    "amenity": "restaurant",
    "name": "Gangris ( Sumai ) Resturant"
  }
},
{
  "type": "node",
  "id": 1498876026,
  "lat": 27.6961409,
  "lon": 85.3080938,
  "tags": {
    "amenity": "cafe",
    "name": "Bakery Cafe Teku"
  }
},
{
  "type": "node",
  "id": 1534450706,
  "lat": 27.7110529,
  "lon": 85.3196628,
  "tags": {
    "amenity": "restaurant",
    "cuisine": "north-korean",
    "name": "Pyongyang Okryu Gwan Restaurant",
    "phone": "4233288"
  }
},
{
  "type": "node",
  "id": 1551745102,
  "lat": 27.7047210,
  "lon": 85.3061516,
  "tags": {
    "amenity": "cafe",
    "name": "Cosmo De Cafe"
  }
},
{
  "type": "node",
  "id": 1551745110,
  "lat": 27.7032021,
  "lon": 85.3092843,
  "tags": {
    "amenity": "restaurant",
    "name": "Revolving Restaurant"
  }
},
{
  "type": "node",
  "id": 1769321650,
  "lat": 27.6320815,
  "lon": 85.5156524,
  "tags": {
    "amenity": "restaurant"
  }
},
{
  "type": "node",
  "id": 1787021172,
  "lat": 27.6694450,
  "lon": 85.3284707,
  "tags": {
    "amenity": "cafe"
  }
},
{
  "type": "node",
  "id": 1787036666,
  "lat": 27.6715757,
  "lon": 85.3193698,
  "tags": {
    "amenity": "cafe",
    "name": "coffee corner"
  }
},
{
  "type": "node",
  "id": 1792706214,
  "lat": 27.6726337,
  "lon": 85.3142614,
  "tags": {
    "amenity": "restaurant",
    "name": "Wimpies"
  }
},
{
  "type": "node",
  "id": 1792706930,
  "lat": 27.6713304,
  "lon": 85.3124715,
  "tags": {
    "amenity": "fast_food",
    "name": "street fastfood"
  }
},
{
  "type": "node",
  "id": 1792707536,
  "lat": 27.6713921,
  "lon": 85.3124956,
  "tags": {
    "amenity": "fast_food",
    "name": "street fastfood"
  }
},
{
  "type": "node",
  "id": 1810054567,
  "lat": 27.7119289,
  "lon": 85.3098332,
  "tags": {
    "amenity": "restaurant",
    "name": "Olive Tree Restaurant and Bar",
    "name:en": "Olive Tree Restaurant and Bar"
  }
},
{
  "type": "node",
  "id": 1815682298,
  "lat": 27.6739386,
  "lon": 85.3114596,
  "tags": {
    "amenity": "fast_food",
    "internet_access": "no",
    "name": "Zoo Restaurant"
  }
},
{
  "type": "node",
  "id": 1815689369,
  "lat": 27.6737995,
  "lon": 85.3119374,
  "tags": {
    "amenity": "cafe",
    "name": "Transit Cafe",
    "name:en": "Transit Cafe",
    "phone": "015529309"
  }
},
{
  "type": "node",
  "id": 1817306834,
  "lat": 27.6763321,
  "lon": 85.3112855,
  "tags": {
    "amenity": "restaurant",
    "name": "Falcha"
  }
},
{
  "type": "node",
  "id": 1817316042,
  "lat": 27.6732142,
  "lon": 85.3098786,
  "tags": {
    "amenity": "fast_food"
  }
},
{
  "type": "node",
  "id": 1833792724,
  "lat": 27.6767757,
  "lon": 85.3172465,
  "tags": {
    "amenity": "restaurant",
    "cuisine": "momo",
    "email": "niceko.kc@gmail.com",
    "name": "Nice Momo",
    "phone": "015545243"
  }
},
{
  "type": "node",
  "id": 1833840060,
  "lat": 27.6312118,
  "lon": 85.5198850,
  "tags": {
    "amenity": "restaurant"
  }
},
{
  "type": "node",
  "id": 1849461233,
  "lat": 27.6781561,
  "lon": 85.3214047,
  "tags": {
    "amenity": "cafe",
    "name": "Chiya Pasal",
    "opening_hours": "06:30-19:00"
  }
},
{
  "type": "node",
  "id": 1849461237,
  "lat": 27.6778585,
  "lon": 85.3215272,
  "tags": {
    "amenity": "fast_food",
    "name": "Gurung Bhanchha Ghar",
    "opening_hours": "06:00-21:00",
    "phone": "9841025428",
    "specialities": "Khana, Thukpa, Mo:Mo"
  }
},
{
  "type": "node",
  "id": 1849461238,
  "lat": 27.6784467,
  "lon": 85.3212270,
  "tags": {
    "amenity": "fast_food",
    "name": "Himalaya Hotel",
    "opening_hours": "06:00-22:00"
  }
},
{
  "type": "node",
  "id": 1849461260,
  "lat": 27.6784874,
  "lon": 85.3211957,
  "tags": {
    "amenity": "cafe",
    "name": "चिया पसल",
    "name:en": "Chiya Pasal",
    "name:ne": "चिया पसल"
  }
},
{
  "type": "node",
  "id": 1858151599,
  "lat": 27.6788017,
  "lon": 85.3212907,
  "tags": {
    "amenity": "restaurant",
    "name": "Adhikary Bhojanalaya"
  }
},
{
  "type": "node",
  "id": 1858151606,
  "lat": 27.6787655,
  "lon": 85.3212468,
  "tags": {
    "amenity": "cafe",
    "name": "Jhapali Chiya Pasal",
    "phone": "5543289"
  }
},
{
  "type": "node",
  "id": 1858151610,
  "lat": 27.6787306,
  "lon": 85.3212058,
  "tags": {
    "amenity": "fast_food",
    "name": "Khan Roti Pasal"
  }
},
{
  "type": "node",
  "id": 1858151612,
  "lat": 27.6786690,
  "lon": 85.3211318,
  "tags": {
    "addr:street": "patan Dhokaa",
    "amenity": "restaurant",
    "name": "Lalit Bhojanalaya",
    "name:en": "Lalit Bhanchhaghar",
    "operator": "Nepali Khana",
    "phone": "9849132272",
    "tourism": "hotel"
  }
},
{
  "type": "node",
  "id": 1858151615,
  "lat": 27.6786989,
  "lon": 85.3211747,
  "tags": {
    "amenity": "restaurant",
    "name": "Nava Durga Bhojanalaya",
    "phone": "9849714564"
  }
},
{
  "type": "node",
  "id": 1875597196,
  "lat": 27.7137939,
  "lon": 85.3136388,
  "tags": {
    "addr:city": "Kathmandu",
    "addr:housename": "Sanchaya kosh Bhawan",
    "addr:housenumber": "219",
    "addr:street": "Tridevi Marg",
    "amenity": "restaurant",
    "cuisine": "italian",
    "email": "fireandicepizzeria@hotmail.com",
    "name": "फाएर एण्ड आइस रेष्टुरेन्ट",
    "name:en": "Fire & Ice Restaurant",
    "name:ne": "फाएर एण्ड आइस रेष्टुरेन्ट",
    "phone": "+977 1 4250210",
    "website": "https://www.fireandicepizzeria.com/kathmandu.html"
  }
},
{
  "type": "node",
  "id": 1880051587,
  "lat": 27.6759765,
  "lon": 85.3143833,
  "tags": {
    "amenity": "cafe",
    "cuisine": "donut",
    "email": "hessedcafe@gmail.com",
    "internet_access": "yes",
    "internet_access:fee": "no",
    "name": "Cafe Hessed",
    "opening_hours": "Su-Fr 08:00-20:00",
    "operator": "Tae Jun Jin",
    "phone": "+977-1-5530993",
    "smoking": "no",
    "source": "local_knowledge",
    "wheelchair": "no"
  }
},
{
  "type": "node",
  "id": 1881995999,
  "lat": 27.6883058,
  "lon": 85.3340093,
  "tags": {
    "amenity": "fast_food",
    "name": "नेपाल डेरी",
    "name:en": "Nepal Dairy",
    "name:ne": "नेपाल डेरी"
  }
},
{
  "type": "node",
  "id": 1883860524,
  "lat": 27.6694613,
  "lon": 85.3099426,
  "tags": {
    "amenity": "restaurant",
    "name": "New Drop Restaurant"
  }
},
{
  "type": "node",
  "id": 1891343755,
  "lat": 27.7325947,
  "lon": 85.3443073,
  "tags": {
    "amenity": "restaurant",
    "name": "Rupy Party Palace",
    "name:en": "Smart Cafe & Banquet",
    "phone": "014375005"
  }
},
{
  "type": "node",
  "id": 1891446165,
  "lat": 27.6729423,
  "lon": 85.3140020,
  "tags": {
    "amenity": "restaurant",
    "cuisine": "indian",
    "name": "alishan"
  }
},
{
  "type": "node",
  "id": 1891535244,
  "lat": 27.6842974,
  "lon": 85.3184830,
  "tags": {
    "amenity": "restaurant",
    "name": "Momo Box"
  }
},
{
  "type": "node",
  "id": 1891985126,
  "lat": 27.7190407,
  "lon": 85.3312610,
  "tags": {
    "amenity": "cafe",
    "internet_access": "wlan",
    "name": "The Bakery Cafe",
    "phone": "014441590",
    "website": "https://www.thebakerycafe.com.np/"
  }
},
{
  "type": "node",
  "id": 1892718840,
  "lat": 27.6906759,
  "lon": 85.3362894,
  "tags": {
    "amenity": "restaurant",
    "name": "Beijing Duck"
  }
},
{
  "type": "node",
  "id": 1892722387,
  "lat": 27.6780093,
  "lon": 85.3212169,
  "tags": {
    "amenity": "restaurant",
    "cuisine": "indian",
    "name": "Annapurna Sweets And Fastfood",
    "phone": "015005500"
  }
},
{
  "type": "node",
  "id": 1892815644,
  "lat": 27.6761375,
  "lon": 85.3131869,
  "tags": {
    "alt_name": "Fusion",
    "amenity": "restaurant",
    "name": "Fusion Bar & Restaurant"
  }
},
{
  "type": "node",
  "id": 1892815653,
  "lat": 27.6763101,
  "lon": 85.3129267,
  "tags": {
    "amenity": "restaurant",
    "name": "8 degrees"
  }
},
{
  "type": "node",
  "id": 1894153478,
  "lat": 27.7200796,
  "lon": 85.3315321,
  "tags": {
    "amenity": "cafe",
    "name": "Roadhouse Cafe"
  }
},
{
  "type": "node",
  "id": 1894281692,
  "lat": 27.6814881,
  "lon": 85.3175491,
  "tags": {
    "amenity": "restaurant",
    "name": "Firewood Pizza and Thakali Restaurant"
  }
},
{
  "type": "node",
  "id": 1894286184,
  "lat": 27.6832604,
  "lon": 85.3190299,
  "tags": {
    "addr:street": "Kupondole Road",
    "amenity": "fast_food",
    "internet_access": "wlan",
    "name": "ओरेन्ज क्याफे",
    "name:en": "Orange Cafe",
    "name:ne": "ओरेन्ज क्याफे",
    "phone": "015553194"
  }
},
{
  "type": "node",
  "id": 1894295856,
  "lat": 27.6817722,
  "lon": 85.3199252,
  "tags": {
    "amenity": "restaurant",
    "name": "Samurai restaurant"
  }
},
{
  "type": "node",
  "id": 1894339214,
  "lat": 27.6905932,
  "lon": 85.3390252,
  "tags": {
    "amenity": "restaurant",
    "name": "7th heaven"
  }
},
{
  "type": "node",
  "id": 1894359635,
  "lat": 27.6908376,
  "lon": 85.3173072,
  "tags": {
    "amenity": "restaurant",
    "cuisine": "newari",
    "name": "नेवारी किचन",
    "name:en": "Newari Kitchen",
    "name:ne": "नेवारी किचन"
  }
},
{
  "type": "node",
  "id": 1894392422,
  "lat": 27.6935485,
  "lon": 85.3277393,
  "tags": {
    "amenity": "restaurant",
    "name": "ईटेम्पस",
    "name:en": "Eatempus",
    "name:ne": "ईटेम्पस"
  }
},
{
  "type": "node",
  "id": 1898414114,
  "lat": 27.7138792,
  "lon": 85.3249137,
  "tags": {
    "amenity": "cafe",
    "name": "Old House Cafe"
  }
},
{
  "type": "node",
  "id": 1898436170,
  "lat": 27.7143311,
  "lon": 85.3249229,
  "tags": {
    "amenity": "restaurant",
    "internet_access": "wlan",
    "internet_access:fee": "no",
    "name": "Ktm Espresso Restaurant"
  }
},
{
  "type": "node",
  "id": 1898521000,
  "lat": 27.7147896,
  "lon": 85.3271809,
  "tags": {
    "amenity": "restaurant",
    "name": "Amigo Fresh Mexican Grill"
  }
},
{
  "type": "node",
  "id": 1898521001,
  "lat": 27.7150782,
  "lon": 85.3265014,
  "tags": {
    "amenity": "cafe",
    "name": "Espression the cafe"
  }
},
{
  "type": "node",
  "id": 1898540389,
  "lat": 27.7218557,
  "lon": 85.3313209,
  "tags": {
    "amenity": "restaurant",
    "name": "Noyoz Eatery"
  }
},
{
  "type": "node",
  "id": 1898593308,
  "lat": 27.7174224,
  "lon": 85.3308744,
  "tags": {
    "amenity": "restaurant",
    "contact:phone": "+977 01 4415997",
    "cuisine": "regional",
    "name": "Ghar Bar Restaurant",
    "opening_hours": "Mo-Su 11:00-21:30",
    "website": "http://www.gharbarrestaurant.com/"
  }
},
{
  "type": "node",
  "id": 1898593309,
  "lat": 27.7164870,
  "lon": 85.3303277,
  "tags": {
    "amenity": "fast_food",
    "name": "Star Khaja Ghar"
  }
},
{
  "type": "node",
  "id": 1898624382,
  "lat": 27.7190220,
  "lon": 85.3309399,
  "tags": {
    "amenity": "restaurant",
    "name": "Capital Grill"
  }
},
{
  "type": "node",
  "id": 1901867629,
  "lat": 27.7415527,
  "lon": 85.3480546,
  "tags": {
    "amenity": "fast_food",
    "name": "Sekuwa Corner"
  }
},
{
  "type": "node",
  "id": 1904043431,
  "lat": 27.6762659,
  "lon": 85.3131402,
  "tags": {
    "amenity": "restaurant",
    "int_name": "F bar",
    "name": "F bar"
  }
},
{
  "type": "node",
  "id": 1904093833,
  "lat": 27.6727912,
  "lon": 85.3246996,
  "tags": {
    "amenity": "restaurant",
    "building:level": "1",
    "name": "Yala Layeku kitchen"
  }
},
{
  "type": "node",
  "id": 1904118759,
  "lat": 27.6737705,
  "lon": 85.3257063,
  "tags": {
    "amenity": "restaurant",
    "check_date": "2024-03-25",
    "name": "कासा प्यागोडा",
    "name:en": "Casa Pagoda",
    "name:ne": "कासा प्यागोडा"
  }
},
{
  "type": "node",
  "id": 1904127993,
  "lat": 27.6739665,
  "lon": 85.3254442,
  "tags": {
    "amenity": "cafe",
    "name": "क्याफे डु पाटन",
    "name:en": "Cafe Du Patan",
    "name:ne": "क्याफे डु पाटन"
  }
},
{
  "type": "node",
  "id": 1904166494,
  "lat": 27.6745695,
  "lon": 85.3256173,
  "tags": {
    "amenity": "restaurant",
    "name": "Melting pot"
  }
},
{
  "type": "node",
  "id": 1904243455,
  "lat": 27.6745207,
  "lon": 85.3245590,
  "tags": {
    "amenity": "cafe",
    "name": "kwalkhu cafe"
  }
},
{
  "type": "node",
  "id": 1904290338,
  "lat": 27.6736747,
  "lon": 85.3248069,
  "tags": {
    "addr:street": "मङ्गलबजार मार्ग",
    "amenity": "fast_food",
    "contact:facebook": "honacha1",
    "contact:instagram": "honachanewarikitchen",
    "contact:twitter": "honacha",
    "cuisine": "local",
    "name": "होनचा (पाटन)",
    "name:en": "Honacha (Patan)",
    "opening_hours": "Mo-Su 08:00-21:00",
    "phone": "+977  9841460984",
    "self_service": "partially",
    "website": "http://honacha.com.np"
  }
},
{
  "type": "node",
  "id": 1904311760,
  "lat": 27.6736360,
  "lon": 85.3247448,
  "tags": {
    "amenity": "cafe",
    "name": "D'square Cafe",
    "name:en": "D'square Cafe"
  }
},
{
  "type": "node",
  "id": 1904344425,
  "lat": 27.6734788,
  "lon": 85.3245763,
  "tags": {
    "amenity": "restaurant",
    "name": "Mani- Ga Bhutu"
  }
},
{
  "type": "node",
  "id": 1904346816,
  "lat": 27.6736793,
  "lon": 85.3244212,
  "tags": {
    "amenity": "cafe",
    "name": "The Side Walk Cafe"
  }
},
{
  "type": "node",
  "id": 1904414901,
  "lat": 27.6907767,
  "lon": 85.3179357,
  "tags": {
    "amenity": "cafe",
    "name": "न्यूयोर्क क्याफे",
    "name:en": "New York Cafe",
    "name:ne": "न्यूयोर्क क्याफे",
    "wheelchair": "limited"
  }
},
{
  "type": "node",
  "id": 1904414905,
  "lat": 27.6735262,
  "lon": 85.3134068,
  "tags": {
    "amenity": "fast_food",
    "name": "श्रेया स्वीट्स",
    "name:en": "Shreya sweets",
    "name:ne": "श्रेया स्वीट्स"
  }
},
{
  "type": "node",
  "id": 1905155334,
  "lat": 27.7393390,
  "lon": 85.3390931,
  "tags": {
    "amenity": "restaurant",
    "name": "Belly Busters Restaurant"
  }
},
{
  "type": "node",
  "id": 1905155372,
  "lat": 27.7405252,
  "lon": 85.3365727,
  "tags": {
    "amenity": "restaurant",
    "name": "Ruby Sweets"
  }
},
{
  "type": "node",
  "id": 1905155380,
  "lat": 27.7394717,
  "lon": 85.3387932,
  "tags": {
    "amenity": "restaurant",
    "name": "Thakali Chulo Restaurant"
  }
},
{
  "type": "node",
  "id": 1905155383,
  "lat": 27.7391015,
  "lon": 85.3394561,
  "tags": {
    "amenity": "restaurant",
    "name": "The Airport Sekuwa"
  }
},
{
  "type": "node",
  "id": 1905155386,
  "lat": 27.7385183,
  "lon": 85.3392568,
  "tags": {
    "addr:street": "Ring Road",
    "amenity": "cafe",
    "email": "vida@outlook.com",
    "name": "भिडा क्याफे एण्ड ग्रिल",
    "name:en": "Vida Cafe & Grill",
    "name:ne": "भिडा क्याफे एण्ड ग्रिल",
    "phone": "014721060",
    "website": "https://www.facebook.com/vidacafekathmandu"
  }
},
{
  "type": "node",
  "id": 1905155387,
  "lat": 27.7393987,
  "lon": 85.3389263,
  "tags": {
    "amenity": "cafe",
    "name": "Universal Cafe"
  }
},
{
  "type": "node",
  "id": 1905259039,
  "lat": 27.7040965,
  "lon": 85.3322874,
  "tags": {
    "amenity": "fast_food",
    "name": "Bakery Sweets"
  }
},
{
  "type": "node",
  "id": 1905315994,
  "lat": 27.7000991,
  "lon": 85.3218351,
  "tags": {
    "amenity": "cafe",
    "name": "Ice cafe"
  }
},
{
  "type": "node",
  "id": 1905351047,
  "lat": 27.7030359,
  "lon": 85.3227893,
  "tags": {
    "amenity": "restaurant",
    "name": "New Plaza Kitchen"
  }
},
{
  "type": "node",
  "id": 1905376363,
  "lat": 27.7039533,
  "lon": 85.3227474,
  "tags": {
    "addr:street": "Ram Shah Path (पुतलीसडक)",
    "amenity": "restaurant",
    "cuisine": "chinese;indian",
    "internet_access": "wlan",
    "name": "Name Cafe and Restaurant",
    "opening_hours": "Mo-Su 08:00-22:00",
    "operator": "BS Pandey"
  }
},
{
  "type": "node",
  "id": 1905389010,
  "lat": 27.7050767,
  "lon": 85.3236943,
  "tags": {
    "amenity": "restaurant",
    "name": "Sheetal garden restaurant and bar"
  }
},
{
  "type": "node",
  "id": 1906555316,
  "lat": 27.7381418,
  "lon": 85.3397081,
  "tags": {
    "amenity": "restaurant",
    "capacity": "100",
    "name": "Indreni Foodland"
  }
},
{
  "type": "node",
  "id": 1906696046,
  "lat": 27.7394868,
  "lon": 85.3396055,
  "tags": {
    "amenity": "fast_food",
    "name": "The Bakery Cafe",
    "phone": "014016003",
    "website": "https://www.thebakerycafe.com.np/"
  }
},
{
  "type": "node",
  "id": 1917103306,
  "lat": 27.7388507,
  "lon": 85.3356908,
  "tags": {
    "amenity": "cafe",
    "name": "3D Cafe and Bar"
  }
},
{
  "type": "node",
  "id": 1918582153,
  "lat": 27.7389267,
  "lon": 85.3357042,
  "tags": {
    "amenity": "cafe",
    "name": "Coffe Talk"
  }
},
{
  "type": "node",
  "id": 1923841153,
  "lat": 27.6811956,
  "lon": 85.3416808,
  "tags": {
    "amenity": "restaurant",
    "banquet": "yes",
    "name": "लोटस पार्टी प्यालेस",
    "name:en": "Lotus Party Palace",
    "name:ne": "लोटस पार्टी प्यालेस"
  }
},
{
  "type": "node",
  "id": 1927427331,
  "lat": 27.6779369,
  "lon": 85.3475603,
  "tags": {
    "amenity": "cafe",
    "name": "The Free Zone Cafe and Food Land"
  }
},
{
  "type": "node",
  "id": 1927536322,
  "lat": 27.6720098,
  "lon": 85.3404189,
  "tags": {
    "amenity": "restaurant",
    "name": "गुड विल डान्स बार एण्ड रेस्टुरेन्ट",
    "name:en": "Good Will Dance Bar & Restaurant",
    "name:ne": "गुड विल डान्स बार एण्ड रेस्टुरेन्ट"
  }
},
{
  "type": "node",
  "id": 1927559639,
  "lat": 27.6707088,
  "lon": 85.3384359,
  "tags": {
    "amenity": "restaurant",
    "name": "Classic Food Home",
    "name:en": "Classic Food Home",
    "name:ne": ""
  }
},
{
  "type": "node",
  "id": 1927559646,
  "lat": 27.6693345,
  "lon": 85.3357777,
  "tags": {
    "amenity": "cafe",
    "name": "एनडीको",
    "name:en": "ND's",
    "name:ne": "एनडीको"
  }
},
{
  "type": "node",
  "id": 1927600087,
  "lat": 27.6756626,
  "lon": 85.3393721,
  "tags": {
    "amenity": "cafe",
    "name": "हार्ड सन क्याफे",
    "name:en": "Hard Sun Cafe",
    "name:ne": "हार्ड सन क्याफे"
  }
},
{
  "type": "node",
  "id": 1929168140,
  "lat": 27.6957871,
  "lon": 85.3549640,
  "tags": {
    "amenity": "restaurant",
    "name": "किशोर कुमार सेकुवा",
    "name:en": "Kishore Kumar Sekuwa",
    "name:ne": "किशोर कुमार सेकुवा"
  }
},
{
  "type": "node",
  "id": 1930532956,
  "lat": 27.7148007,
  "lon": 85.3110168,
  "tags": {
    "amenity": "restaurant",
    "contact:facebook": "https://www.facebook.com/pages/Or2K-Thamel/416714001686263",
    "cuisine": "asian;burger;grill;indian;steak_house;sandwich",
    "diet:vegetarian": "only",
    "internet_access": "wlan",
    "name": "OR2K"
  }
},
{
  "type": "node",
  "id": 1936280985,
  "lat": 27.6832158,
  "lon": 85.3343630,
  "tags": {
    "amenity": "restaurant",
    "name": "Five Monkeys Restaurant"
  }
},
{
  "type": "node",
  "id": 1936281005,
  "lat": 27.6840729,
  "lon": 85.3377703,
  "tags": {
    "amenity": "fast_food",
    "cuisine": "newari",
    "name": "Pasa Newari Khaja Ghar"
  }
},
{
  "type": "node",
  "id": 1937647443,
  "lat": 27.6716552,
  "lon": 85.3126428,
  "tags": {
    "amenity": "restaurant",
    "name": "Angel Restaurant and Bar"
  }
},
{
  "type": "node",
  "id": 1937657343,
  "lat": 27.6719765,
  "lon": 85.3152757,
  "tags": {
    "amenity": "restaurant",
    "name": "Sekuwa and Tass House"
  }
},
{
  "type": "node",
  "id": 1937659964,
  "lat": 27.6716109,
  "lon": 85.3161255,
  "tags": {
    "amenity": "cafe",
    "name": "Food Universe Cafe"
  }
},
{
  "type": "node",
  "id": 1937659965,
  "lat": 27.6714308,
  "lon": 85.3162181,
  "tags": {
    "amenity": "restaurant",
    "name": "Hungry Treat home"
  }
},
{
  "type": "node",
  "id": 1937659966,
  "lat": 27.6717040,
  "lon": 85.3161175,
  "tags": {
    "amenity": "restaurant",
    "name": "Lalitpur nepali Bhancha ghar"
  }
},
{
  "type": "node",
  "id": 1937659992,
  "lat": 27.6592144,
  "lon": 85.3114211,
  "tags": {
    "amenity": "restaurant",
    "name": "एबीसी सेकुवा कर्नर रेस्टुरेन्ट",
    "name:en": "ABC Sekuwa Corner Restaurant",
    "name:ne": "एबीसी सेकुवा कर्नर रेस्टुरेन्ट"
  }
},
{
  "type": "node",
  "id": 1937660003,
  "lat": 27.6614632,
  "lon": 85.3059604,
  "tags": {
    "amenity": "restaurant",
    "name": "एमपी 3 रेस्टुरेन्ट र हुक्का बार",
    "name:en": "MP3 Restaurant and Hukka Bar",
    "name:ne": "एमपी 3 रेस्टुरेन्ट र हुक्का बार"
  }
},
{
  "type": "node",
  "id": 1937660009,
  "lat": 27.6642601,
  "lon": 85.3064743,
  "tags": {
    "amenity": "restaurant",
    "name": "श्रीया क्याफे र रेस्टुरेन्ट",
    "name:en": "Shreeya Cafe and Restaurant",
    "name:ne": "श्रीया क्याफे र रेस्टुरेन्ट"
  }
},
{
  "type": "node",
  "id": 1937672800,
  "lat": 27.6764890,
  "lon": 85.3111848,
  "tags": {
    "amenity": "restaurant",
    "name": "Backyard Foodjoint and Pub"
  }
},
{
  "type": "node",
  "id": 1937672806,
  "lat": 27.6766615,
  "lon": 85.3106831,
  "tags": {
    "amenity": "restaurant",
    "name": "Lorry's Restaurant and Bar"
  }
},
{
  "type": "node",
  "id": 1937673105,
  "lat": 27.6698540,
  "lon": 85.3163179,
  "tags": {
    "amenity": "cafe",
    "name": "ItalCaffe"
  }
},
{
  "type": "node",
  "id": 1937673109,
  "lat": 27.6708839,
  "lon": 85.3161248,
  "tags": {
    "amenity": "restaurant",
    "cuisine": "korean",
    "name": "Sa Rang Chae"
  }
},
{
  "type": "node",
  "id": 1937692244,
  "lat": 27.6774038,
  "lon": 85.3087238,
  "tags": {
    "amenity": "cafe",
    "name": "Jars of Clay Cafe"
  }
},
{
  "type": "node",
  "id": 1937701764,
  "lat": 27.6665998,
  "lon": 85.3136722,
  "tags": {
    "amenity": "fast_food",
    "name": "City Tandoori Fast Food"
  }
},
{
  "type": "node",
  "id": 1937702064,
  "lat": 27.6705475,
  "lon": 85.3196002,
  "tags": {
    "amenity": "cafe",
    "name": "The Dream Cafe"
  }
},
{
  "type": "node",
  "id": 1937703863,
  "lat": 27.6759908,
  "lon": 85.3158284,
  "tags": {
    "amenity": "cafe",
    "name": "The Green Cafe"
  }
},
{
  "type": "node",
  "id": 1937710492,
  "lat": 27.6750154,
  "lon": 85.3023732,
  "tags": {
    "amenity": "cafe",
    "name": "A Cafe and Lounge"
  }
},
{
  "type": "node",
  "id": 1937710496,
  "lat": 27.6785368,
  "lon": 85.3053952,
  "tags": {
    "amenity": "cafe",
    "name": "Albino Cafe"
  }
},
{
  "type": "node",
  "id": 1937710545,
  "lat": 27.6779874,
  "lon": 85.3074162,
  "tags": {
    "addr:city": "Patan",
    "addr:street": "Jhamel Road",
    "amenity": "restaurant",
    "cuisine": "vietnamese",
    "delivery": "yes",
    "name": "Pho 99",
    "outdoor_seating": "yes",
    "takeaway": "yes"
  }
},
{
  "type": "node",
  "id": 1937710549,
  "lat": 27.6762384,
  "lon": 85.3024135,
  "tags": {
    "amenity": "restaurant",
    "name": "कृष्ण नेवारी खाजा घर",
    "name:en": "Krisha Newari Khaza Ghar",
    "name:ne": "कृष्ण नेवारी खाजा घर"
  }
},
{
  "type": "node",
  "id": 1937710587,
  "lat": 27.6751768,
  "lon": 85.3065532,
  "tags": {
    "amenity": "restaurant",
    "name": "New Tasty Bite Restaurant and Bar"
  }
},
{
  "type": "node",
  "id": 1937710614,
  "lat": 27.6773249,
  "lon": 85.3089262,
  "tags": {
    "amenity": "restaurant",
    "name": "Rosewood Restaurant"
  }
},
{
  "type": "node",
  "id": 1937710615,
  "lat": 27.6746244,
  "lon": 85.3081801,
  "tags": {
    "amenity": "restaurant",
    "name": "Sandwich Sunday"
  }
},
{
  "type": "node",
  "id": 1937718371,
  "lat": 27.6730714,
  "lon": 85.3154121,
  "tags": {
    "amenity": "restaurant",
    "name": "Bagaicha"
  }
},
{
  "type": "node",
  "id": 1937718391,
  "lat": 27.6751673,
  "lon": 85.3163714,
  "tags": {
    "amenity": "office;restaurant",
    "name": "Gain Well Saving & Credit Cooperative Ltd;NPP",
    "office": "cooperative"
  }
},
{
  "type": "node",
  "id": 1937718428,
  "lat": 27.6729425,
  "lon": 85.3156059,
  "tags": {
    "amenity": "cafe",
    "name": "Junction Cafe",
    "opening_hours": "Mo-Su 08:00-19:00"
  }
},
{
  "type": "node",
  "id": 1940014117,
  "lat": 27.7133347,
  "lon": 85.3129639,
  "tags": {
    "amenity": "restaurant",
    "name": "GAIA"
  }
},
{
  "type": "node",
  "id": 1940788944,
  "lat": 27.6995084,
  "lon": 85.3385865,
  "tags": {
    "amenity": "cafe",
    "name": "Green Land Cafe"
  }
},
{
  "type": "node",
  "id": 1941220075,
  "lat": 27.6890220,
  "lon": 85.3287738,
  "tags": {
    "amenity": "fast_food",
    "name": "Elms Cafe"
  }
},
{
  "type": "node",
  "id": 1942418343,
  "lat": 27.6989387,
  "lon": 85.3384114,
  "tags": {
    "amenity": "cafe",
    "name": "Presca's Cafe"
  }
},
{
  "type": "node",
  "id": 1945544310,
  "lat": 27.6799190,
  "lon": 85.3100214,
  "tags": {
    "alt_name": "Pizzahood",
    "amenity": "fast_food",
    "cuisine": "pizza",
    "name": "Pizzahood",
    "shop": "variety_store",
    "website": "www.pizzahood.com"
  }
},
{
  "type": "node",
  "id": 1945608801,
  "lat": 27.6896044,
  "lon": 85.3285061,
  "tags": {
    "amenity": "fast_food",
    "name": "काभ्रेली भोजनालय",
    "name:en": "Kavreli Bhojanalaya",
    "name:ne": "काभ्रेली भोजनालय"
  }
},
{
  "type": "node",
  "id": 1945608815,
  "lat": 27.6875204,
  "lon": 85.3264731,
  "tags": {
    "amenity": "cafe",
    "name": "Susmita Hotel"
  }
},
{
  "type": "node",
  "id": 1945637495,
  "lat": 27.6922058,
  "lon": 85.3297984,
  "tags": {
    "amenity": "cafe",
    "name": "यौंग हार्ट बेकरी क्याफे",
    "name:en": "Young Heart Bakery Cafe",
    "name:ne": "यौंग हार्ट बेकरी क्याफे"
  }
},
{
  "type": "node",
  "id": 1947167450,
  "lat": 27.6898738,
  "lon": 85.3057120,
  "tags": {
    "amenity": "cafe",
    "name": "A Cube Cafe"
  }
},
{
  "type": "node",
  "id": 1950516695,
  "lat": 27.7205781,
  "lon": 85.3288454,
  "tags": {
    "amenity": "restaurant",
    "name": "Alice Restaurant",
    "toilets:wheelchair": "no",
    "wheelchair": "yes"
  }
},
{
  "type": "node",
  "id": 1956218974,
  "lat": 27.7145505,
  "lon": 85.3124157,
  "tags": {
    "amenity": "restaurant",
    "cuisine": "chinese",
    "name": "दा हुआ चिनियाँ रेस्टुरेन्ट",
    "name:en": "Da Hua Chinese Restaurant",
    "name:ne": "दा हुआ चिनियाँ रेस्टुरेन्ट"
  }
},
{
  "type": "node",
  "id": 1957221816,
  "lat": 27.7159316,
  "lon": 85.3245943,
  "tags": {
    "amenity": "restaurant",
    "indoor_seating": "yes",
    "name": "Taas Mahal",
    "outdoor_seating": "no"
  }
},
{
  "type": "node",
  "id": 1960049080,
  "lat": 27.7243842,
  "lon": 85.3399976,
  "tags": {
    "amenity": "cafe",
    "name": "Shreya Cafe"
  }
},
{
  "type": "node",
  "id": 1962290898,
  "lat": 27.7232541,
  "lon": 85.3388958,
  "tags": {
    "amenity": "restaurant",
    "name": "Dhumra Baraha Party Palace & Restaurant",
    "toilets:wheelchair": "no",
    "wheelchair": "limited"
  }
},
{
  "type": "node",
  "id": 1962290915,
  "lat": 27.7222009,
  "lon": 85.3386216,
  "tags": {
    "amenity": "restaurant",
    "name": "The Group Restaurant & Bar",
    "operator": "Run by Women Group Dhumbarahi",
    "phone": "4436156"
  }
},
{
  "type": "node",
  "id": 1964034150,
  "lat": 27.7175847,
  "lon": 85.3164029,
  "tags": {
    "amenity": "restaurant",
    "indoor_seating": "yes",
    "name": "Mela Restaurant and Bar",
    "outdoor_seating": "yes"
  }
},
{
  "type": "node",
  "id": 1964972218,
  "lat": 27.7195629,
  "lon": 85.3090686,
  "tags": {
    "amenity": "restaurant",
    "name": "Bajeko Sekuwa",
    "toilets:wheelchair": "no",
    "wheelchair": "limited"
  }
},
{
  "type": "node",
  "id": 1966285051,
  "lat": 27.6902081,
  "lon": 85.3095521,
  "tags": {
    "amenity": "restaurant",
    "cuisine": "newari",
    "name": "Newari Khaja Ghar"
  }
},
{
  "type": "node",
  "id": 1969476951,
  "lat": 27.6803827,
  "lon": 85.4295557,
  "tags": {
    "amenity": "cafe",
    "name": "Rajesh Khaja Ghar"
  }
},
{
  "type": "node",
  "id": 1989508623,
  "lat": 27.6856732,
  "lon": 85.3453507,
  "tags": {
    "amenity": "cafe",
    "name": "Bharyang Cafe"
  }
},
{
  "type": "node",
  "id": 1989508627,
  "lat": 27.6851307,
  "lon": 85.3455834,
  "tags": {
    "amenity": "fast_food",
    "name": "Cakery Bakery"
  }
},
{
  "type": "node",
  "id": 1989508678,
  "lat": 27.6808047,
  "lon": 85.3468067,
  "tags": {
    "amenity": "restaurant",
    "name": "परिचय खाजा घर",
    "name:en": "Parichaya Khaja Ghar",
    "name:ne": "परिचय खाजा घर"
  }
},
{
  "type": "node",
  "id": 1989508684,
  "lat": 27.6833932,
  "lon": 85.3488048,
  "tags": {
    "amenity": "restaurant",
    "name": "Purano Lumbini Tandoori Bhojanalaya"
  }
},
{
  "type": "node",
  "id": 1989508688,
  "lat": 27.6855055,
  "lon": 85.3445764,
  "tags": {
    "amenity": "restaurant",
    "name": "Radission Restaurant"
  }
},
{
  "type": "node",
  "id": 1989508702,
  "lat": 27.6852289,
  "lon": 85.3455638,
  "tags": {
    "amenity": "fast_food",
    "name": "The Everest Burger House"
  }
},
{
  "type": "node",
  "id": 1990673886,
  "lat": 27.6737341,
  "lon": 85.3731909,
  "tags": {
    "amenity": "cafe",
    "name": "Chilly Cafe"
  }
},
{
  "type": "node",
  "id": 1990673919,
  "lat": 27.6736122,
  "lon": 85.3755146,
  "tags": {
    "amenity": "cafe",
    "name": "Kavre Bhojanalaya"
  }
},
{
  "type": "node",
  "id": 1990673920,
  "lat": 27.6737663,
  "lon": 85.3720156,
  "tags": {
    "amenity": "cafe",
    "name": "Khaja Ghar Bhojanalaya"
  }
},
{
  "type": "node",
  "id": 1990674404,
  "lat": 27.6737588,
  "lon": 85.3737324,
  "tags": {
    "amenity": "restaurant",
    "name": "Vetghat Restaurant"
  }
},
{
  "type": "node",
  "id": 1990685701,
  "lat": 27.6744984,
  "lon": 85.3802486,
  "tags": {
    "amenity": "cafe",
    "name": "Jiwan Dairy and Coffee Shop"
  }
},
{
  "type": "node",
  "id": 1990685704,
  "lat": 27.6741841,
  "lon": 85.3800320,
  "tags": {
    "amenity": "cafe",
    "name": "Krishna Khaja Ghar"
  }
},
{
  "type": "node",
  "id": 1990685705,
  "lat": 27.6746327,
  "lon": 85.3803760,
  "tags": {
    "amenity": "restaurant",
    "cuisine": "newari",
    "name": "Newari Khaja Ghar"
  }
},
{
  "type": "node",
  "id": 1993365052,
  "lat": 27.7493750,
  "lon": 85.3453499,
  "tags": {
    "amenity": "restaurant",
    "name": "Waar-Mou Kitchen Resturent and Bar"
  }
},
{
  "type": "node",
  "id": 1996638818,
  "lat": 27.6972659,
  "lon": 85.3379163,
  "tags": {
    "amenity": "cafe",
    "name": "Hearten Cafe"
  }
},
{
  "type": "node",
  "id": 1996638819,
  "lat": 27.6971068,
  "lon": 85.3378800,
  "tags": {
    "amenity": "restaurant",
    "name": "Venus Kitchen Restaurant"
  }
},
{
  "type": "node",
  "id": 1996639811,
  "lat": 27.6992473,
  "lon": 85.3384541,
  "tags": {
    "amenity": "restaurant",
    "name": "Ever Green Restaurant and Cafe"
  }
},
{
  "type": "node",
  "id": 1998479223,
  "lat": 27.6940341,
  "lon": 85.3279166,
  "tags": {
    "amenity": "restaurant",
    "name": "Bhetghat Restaurant",
    "toilets:wheelchair": "limited",
    "wheelchair": "yes"
  }
},
{
  "type": "node",
  "id": 1999594114,
  "lat": 27.7273190,
  "lon": 85.3238108,
  "tags": {
    "amenity": "restaurant",
    "name": "Shangri-La Garden Restaurant"
  }
},
{
  "type": "node",
  "id": 1999643944,
  "lat": 27.7107855,
  "lon": 85.3177285,
  "tags": {
    "addr:city": "Kathmandu",
    "addr:country": "NP",
    "addr:postcode": "00977",
    "addr:state": "Central Region",
    "addr:street": "Durbar Marg",
    "amenity": "restaurant",
    "name": "Cafereena",
    "outdoor_seating": "yes",
    "phone": "01-4231313",
    "smoking": "yes",
    "website": "www.cafereena.com.np"
  }
},
{
  "type": "node",
  "id": 2001058350,
  "lat": 27.7239892,
  "lon": 85.3311792,
  "tags": {
    "amenity": "cafe",
    "name": "Coffee Time"
  }
},
{
  "type": "node",
  "id": 2001289200,
  "lat": 27.7257736,
  "lon": 85.3309047,
  "tags": {
    "amenity": "cafe",
    "cuisine": "indian",
    "name": "Trendy Cafe"
  }
},
{
  "type": "node",
  "id": 2002392572,
  "lat": 27.7353961,
  "lon": 85.3174637,
  "tags": {
    "amenity": "fast_food",
    "name": "Om Everest momo",
    "name:en": "Nyu Everest MoMo"
  }
},
{
  "type": "node",
  "id": 2002501568,
  "lat": 27.7346225,
  "lon": 85.3150674,
  "tags": {
    "amenity": "fast_food",
    "name": "Namaste Tandoori &Sekuwa Corner"
  }
},
{
  "type": "node",
  "id": 2002501577,
  "lat": 27.7346475,
  "lon": 85.3152971,
  "tags": {
    "amenity": "restaurant",
    "name": "Silo Family Restaurant"
  }
},
{
  "type": "node",
  "id": 2005876038,
  "lat": 27.7163530,
  "lon": 85.3250673,
  "tags": {
    "addr:city": "Kathmandu",
    "addr:country": "NP",
    "addr:housenumber": "340",
    "addr:postcode": "00977",
    "addr:state": "Central Region",
    "addr:street": "Naag Pokhari Sadak",
    "amenity": "restaurant",
    "contact:email": "imago.dei.gallery@gmail.com",
    "description": "Cafe - Gallery",
    "internet_access": "wlan",
    "name": "Imago Dei",
    "outdoor_seating": "yes",
    "phone": "+97714442464",
    "website": "www.imagodei.com.np"
  }
},
{
  "type": "node",
  "id": 2006116226,
  "lat": 27.7175696,
  "lon": 85.3289324,
  "tags": {
    "amenity": "cafe",
    "name": "Tifin Home"
  }
},
{
  "type": "node",
  "id": 2006124079,
  "lat": 27.7108846,
  "lon": 85.3282970,
  "tags": {
    "amenity": "fast_food",
    "name": "Everest momo"
  }
},
{
  "type": "node",
  "id": 2006144707,
  "lat": 27.7200213,
  "lon": 85.3306370,
  "tags": {
    "amenity": "cafe",
    "name": "Bhatbhateni Cafe"
  }
},
{
  "type": "node",
  "id": 2006144709,
  "lat": 27.7175900,
  "lon": 85.3288491,
  "tags": {
    "amenity": "restaurant",
    "name": "D'Almond Restaurant"
  }
},
{
  "type": "node",
  "id": 2006144719,
  "lat": 27.7177908,
  "lon": 85.3281711,
  "tags": {
    "amenity": "restaurant",
    "indoor_seating": "yes",
    "name": "Khaja Ghar Restaurant",
    "outdoor_seating": "no"
  }
},
{
  "type": "node",
  "id": 2006144726,
  "lat": 27.7175747,
  "lon": 85.3289115,
  "tags": {
    "amenity": "restaurant",
    "name": "Sayame Tiffin Home"
  }
},
{
  "type": "node",
  "id": 2006144732,
  "lat": 27.7177772,
  "lon": 85.3282623,
  "tags": {
    "amenity": "restaurant",
    "name": "Utam Restaurant and Bar",
    "name:en": "Gairidhara Restaurant and Bar"
  }
},
{
  "type": "node",
  "id": 2006150557,
  "lat": 27.7099678,
  "lon": 85.3278804,
  "tags": {
    "amenity": "fast_food",
    "name": "Ducky Duck"
  }
},
{
  "type": "node",
  "id": 2006419428,
  "lat": 27.7128050,
  "lon": 85.3277500,
  "tags": {
    "amenity": "cafe",
    "name": "Aabhusan Cafe"
  }
},
{
  "type": "node",
  "id": 2006419432,
  "lat": 27.7134870,
  "lon": 85.3246348,
  "tags": {
    "air_conditioning": "no",
    "amenity": "fast_food",
    "indoor_seating": "yes",
    "name": "NagPokhari Cafe & fast food",
    "outdoor_seating": "no",
    "smoking": "yes",
    "wheelchair": "yes"
  }
},
{
  "type": "node",
  "id": 2006419434,
  "lat": 27.7131679,
  "lon": 85.3265023,
  "tags": {
    "amenity": "restaurant",
    "name": "Newari Khaja Ghar"
  }
},
{
  "type": "node",
  "id": 2006419435,
  "lat": 27.7128103,
  "lon": 85.3278131,
  "tags": {
    "amenity": "fast_food",
    "name": "PkG fast-food"
  }
},
{
  "type": "node",
  "id": 2007775803,
  "lat": 27.7191509,
  "lon": 85.3286240,
  "tags": {
    "addr:city": "Kathmandu",
    "addr:country": "NP",
    "addr:postcode": "00977",
    "addr:state": "Central Region",
    "addr:street": "Shantiniketan Marga",
    "amenity": "restaurant",
    "name": "MADZ Multicuisine Restaurant and Bar",
    "outdoor_seating": "yes"
  }
},
{
  "type": "node",
  "id": 2011841426,
  "lat": 27.7245691,
  "lon": 85.3228606,
  "tags": {
    "addr:city": "Kathmandu",
    "addr:country": "NP",
    "addr:postcode": "00977",
    "addr:state": "Central Region",
    "addr:street": "Srijana Marga",
    "amenity": "restaurant",
    "name": "Diyalo Cafe' Restaurant and Bar",
    "outdoor_seating": "yes"
  }
},
{
  "type": "node",
  "id": 2013210830,
  "lat": 27.7234458,
  "lon": 85.3253662,
  "tags": {
    "addr:city": "Kathmandu",
    "addr:country": "NP",
    "addr:postcode": "00977",
    "addr:state": "Central Region",
    "addr:street": "Shree Marga",
    "amenity": "restaurant",
    "name": "Malta - Newari Kitchen"
  }
},
{
  "type": "node",
  "id": 2017902790,
  "lat": 27.7191113,
  "lon": 85.3316208,
  "tags": {
    "amenity": "fast_food",
    "name": "Everest Fast Food Cafe",
    "phone": "+977 01 4442616"
  }
},
{
  "type": "node",
  "id": 2017932099,
  "lat": 27.7189383,
  "lon": 85.3323924,
  "tags": {
    "amenity": "restaurant",
    "name": "Season Restaurant and Bar"
  }
},
{
  "type": "node",
  "id": 2018043131,
  "lat": 27.7065526,
  "lon": 85.3253489,
  "tags": {
    "addr:city": "Kathmandu",
    "addr:country": "NP",
    "addr:postcode": "00977",
    "addr:state": "Central Region",
    "addr:street": "Dilli Bazaar Road (डिल्लिबजार)",
    "amenity": "restaurant",
    "description": "Set menu. As much Raxi as you want.",
    "name": "Bhojan Griha",
    "phone": "4420169",
    "toilets:wheelchair": "no",
    "wheelchair": "yes"
  }
},
{
  "type": "node",
  "id": 2019307233,
  "lat": 27.7813759,
  "lon": 85.4347330,
  "tags": {
    "amenity": "cafe",
    "name": "Tea Shop"
  }
},
{
  "type": "node",
  "id": 2019637556,
  "lat": 27.7250449,
  "lon": 85.3226983,
  "tags": {
    "addr:city": "Kathmandu",
    "addr:country": "NP",
    "addr:postcode": "00977",
    "addr:state": "Central Region",
    "addr:street": "Lazimpat Road",
    "amenity": "restaurant",
    "cuisine": "indian",
    "name": "Seperate Choice Kitchen",
    "outdoor_seating": "no",
    "phone": "9841745206"
  }
},
{
  "type": "node",
  "id": 2027854015,
  "lat": 27.6914823,
  "lon": 85.3329545,
  "tags": {
    "addr:housename": "MOM'S kITCHEN",
    "addr:street": "New Baneshwor",
    "amenity": "cafe",
    "name": "MoM'S KITCHEN"
  }
},
{
  "type": "node",
  "id": 2027855268,
  "lat": 27.6924167,
  "lon": 85.3291878,
  "tags": {
    "amenity": "restaurant",
    "name": "Kwality Party Place"
  }
},
{
  "type": "node",
  "id": 2027864716,
  "lat": 27.6925723,
  "lon": 85.3292593,
  "tags": {
    "amenity": "restaurant",
    "name": "थकाली भान्छा घर",
    "name:en": "Thakali Bhancha ghar",
    "name:ne": "थकाली भान्छा घर"
  }
},
{
  "type": "node",
  "id": 2027866686,
  "lat": 27.6906279,
  "lon": 85.3348877,
  "tags": {
    "amenity": "cafe",
    "designation": "New Baneshwor",
    "name": "Anmol Catering Service"
  }
},
{
  "type": "node",
  "id": 2027886473,
  "lat": 27.6921415,
  "lon": 85.3301757,
  "tags": {
    "amenity": "restaurant",
    "name": "Underground Khaja Ghar"
  }
},
{
  "type": "node",
  "id": 2027887737,
  "lat": 27.6911425,
  "lon": 85.3294309,
  "tags": {
    "amenity": "restaurant",
    "name": "Hukum Party place"
  }
},
{
  "type": "node",
  "id": 2028653766,
  "lat": 27.6905023,
  "lon": 85.3405697,
  "tags": {
    "amenity": "fast_food",
    "name": "Acharya Fast Food",
    "smoking": "no"
  }
},
{
  "type": "node",
  "id": 2028653780,
  "lat": 27.6991796,
  "lon": 85.3455543,
  "tags": {
    "amenity": "fast_food",
    "name": "Cafe De Club"
  }
},
{
  "type": "node",
  "id": 2028654097,
  "lat": 27.6997967,
  "lon": 85.3442166,
  "tags": {
    "amenity": "cafe"
  }
},
{
  "type": "node",
  "id": 2029468551,
  "lat": 27.7231981,
  "lon": 85.3204894,
  "tags": {
    "addr:postcode": "44600",
    "addr:street": "Lazimpath Road",
    "amenity": "restaurant",
    "name": "Nepali Chulo",
    "website": "https://nepalichulo.com.np/"
  }
},
{
  "type": "node",
  "id": 2034533037,
  "lat": 27.7198641,
  "lon": 85.3311692,
  "tags": {
    "amenity": "restaurant",
    "cuisine": "chinese",
    "name": "गोल्डेन ड्र्यागन चिनियाँ रेस्टुरेन्ट",
    "name:en": "Golden Dragon Chinese Restaurant",
    "name:ne": "गोल्डेन ड्र्यागन चिनियाँ रेस्टुरेन्ट"
  }
},
{
  "type": "node",
  "id": 2034664127,
  "lat": 27.7378406,
  "lon": 85.3400257,
  "tags": {
    "amenity": "restaurant",
    "name": "खान खजाना क्याफे",
    "name:en": "Khana Khazana Cafe",
    "name:ne": "खान खजाना क्याफे"
  }
},
{
  "type": "node",
  "id": 2035846061,
  "lat": 27.6783605,
  "lon": 85.3491551,
  "tags": {
    "amenity": "fast_food",
    "name": "एभरेस्ट फूडल्याण्ड",
    "name:en": "Everest Foodland",
    "name:ne": "एभरेस्ट फूडल्याण्ड"
  }
},
{
  "type": "node",
  "id": 2035856721,
  "lat": 27.6711458,
  "lon": 85.3111235,
  "tags": {
    "amenity": "restaurant",
    "name": "Shaligram Comples and Manny's Eatery & Bar "
  }
},
{
  "type": "node",
  "id": 2036056711,
  "lat": 27.6799685,
  "lon": 85.3158270,
  "tags": {
    "amenity": "restaurant",
    "name": "Bakery Cafe Pulchowk",
    "name:en": "Bakery Cafe Pulchowk",
    "wheelchair": "no"
  }
},
{
  "type": "node",
  "id": 2036065345,
  "lat": 27.6785418,
  "lon": 85.3137112,
  "tags": {
    "amenity": "restaurant",
    "name": "LaSoon Resturant "
  }
},
{
  "type": "node",
  "id": 2039623011,
  "lat": 27.6753443,
  "lon": 85.3447602,
  "tags": {
    "amenity": "cafe",
    "name": "Green Cafe"
  }
},
{
  "type": "node",
  "id": 2039623012,
  "lat": 27.6760680,
  "lon": 85.3458800,
  "tags": {
    "amenity": "restaurant",
    "name": "ताजमहल रेस्टुरेन्ट",
    "name:en": "Taj Mahal Restaurant",
    "name:ne": "ताजमहल रेस्टुरेन्ट"
  }
},
{
  "type": "node",
  "id": 2041594256,
  "lat": 27.7207090,
  "lon": 85.3197181,
  "tags": {
    "amenity": "restaurant",
    "cuisine": "chinese",
    "name": "China Town Chinese Restaurant and bar"
  }
},
{
  "type": "node",
  "id": 2047712322,
  "lat": 27.6808210,
  "lon": 85.3143559,
  "tags": {
    "amenity": "fast_food",
    "name": "Byanjankar Bhojanalaya"
  }
},
{
  "type": "node",
  "id": 2047712323,
  "lat": 27.6813986,
  "lon": 85.3175480,
  "tags": {
    "amenity": "cafe",
    "name": "City Food Cafe Restaurant"
  }
},
{
  "type": "node",
  "id": 2047712328,
  "lat": 27.6805611,
  "lon": 85.3172074,
  "tags": {
    "amenity": "fast_food",
    "check_date": "2023-11-17",
    "name": "न्यु तन्दूरी फास्ट फूड",
    "name:en": "New Tandori Fast Food",
    "name:ne": "न्यु तन्दूरी फास्ट फूड"
  }
},
{
  "type": "node",
  "id": 2052442396,
  "lat": 27.7231861,
  "lon": 85.3212915,
  "tags": {
    "addr:street": "Lazimpat",
    "amenity": "fast_food",
    "name": "Tanduri fast Food"
  }
},
{
  "type": "node",
  "id": 2052479244,
  "lat": 27.7108625,
  "lon": 85.3172796,
  "tags": {
    "amenity": "restaurant",
    "brand": "Pizza Hut",
    "brand:wikidata": "Q191615",
    "brand:wikipedia": "en:Pizza Hut",
    "cuisine": "pizza",
    "internet_access": "wlan",
    "name": "Pizza Hut",
    "name:en": "Pizza Hut",
    "name:ne": ""
  }
},
{
  "type": "node",
  "id": 2054176670,
  "lat": 27.7081356,
  "lon": 85.3137924,
  "tags": {
    "amenity": "restaurant",
    "cuisine": "asian",
    "name": "Malta Restaurant"
  }
},
{
  "type": "node",
  "id": 2064163473,
  "lat": 27.7251823,
  "lon": 85.3311339,
  "tags": {
    "amenity": "restaurant",
    "name": "Moonlight Khaja Ghar and Restaurant"
  }
},
{
  "type": "node",
  "id": 2065018339,
  "lat": 27.6757614,
  "lon": 85.3145255,
  "tags": {
    "amenity": "restaurant",
    "name": "L.C Foods"
  }
},
{
  "type": "node",
  "id": 2065022110,
  "lat": 27.6771550,
  "lon": 85.3137540,
  "tags": {
    "addr:district": "Pulchowk",
    "amenity": "restaurant",
    "cuisine": "burger;nepalese",
    "email": "letriorestaurant@gmail.com",
    "name": "Le Trio",
    "phone": "+977 1 5521674"
  }
},
{
  "type": "node",
  "id": 2066081758,
  "lat": 27.7118107,
  "lon": 85.3111411,
  "tags": {
    "amenity": "restaurant",
    "cuisine": "regional",
    "indoor_seating": "yes",
    "name": "Yak",
    "outdoor_seating": "no"
  }
},
{
  "type": "node",
  "id": 2069367165,
  "lat": 27.6741018,
  "lon": 85.2802006,
  "tags": {
    "amenity": "restaurant",
    "internet_access": "no",
    "name": "नमस्ते नेवारी रेस्टुरेन्ट",
    "name:en": "Namaste Newari Restaurant",
    "name:ne": "नमस्ते नेवारी रेस्टुरेन्ट",
    "smoking": "yes"
  }
},
{
  "type": "node",
  "id": 2071170285,
  "lat": 27.7280659,
  "lon": 85.3244796,
  "tags": {
    "addr:city": "Kathmandu",
    "addr:country": "NP",
    "addr:postcode": "00977",
    "addr:state": "Madhyamanchal",
    "addr:street": "Lazimpath Road",
    "amenity": "restaurant",
    "cuisine": "nepalese",
    "name": "मोमो म्यानिया",
    "name:en": "Momo Mania",
    "name:ne": "मोमो म्यानिया",
    "outdoor_seating": "no",
    "phone": "9849303245",
    "smoking": "no",
    "takeaway": "yes"
  }
},
{
  "type": "node",
  "id": 2071332684,
  "lat": 27.7307848,
  "lon": 85.3295597,
  "tags": {
    "amenity": "cafe",
    "internet_access": "no",
    "name": "NAXA Canteen",
    "outdoor_seating": "no"
  }
},
{
  "type": "node",
  "id": 2072662338,
  "lat": 27.7303055,
  "lon": 85.3251740,
  "tags": {
    "amenity": "cafe",
    "name": "Lama's Cafe"
  }
},
{
  "type": "node",
  "id": 2072662340,
  "lat": 27.7303003,
  "lon": 85.3251849,
  "tags": {
    "amenity": "cafe",
    "name": "New Purbeli Momo"
  }
},
{
  "type": "node",
  "id": 2073153212,
  "lat": 27.7309421,
  "lon": 85.3298884,
  "tags": {
    "amenity": "cafe",
    "name": "Niyalo Cafe"
  }
},
{
  "type": "node",
  "id": 2074213091,
  "lat": 27.7244011,
  "lon": 85.3224461,
  "tags": {
    "amenity": "restaurant",
    "name": "Bhumi Restaurant"
  }
},
{
  "type": "node",
  "id": 2074213097,
  "lat": 27.7237309,
  "lon": 85.3219592,
  "tags": {
    "amenity": "restaurant",
    "name": "New Tushita Restaurant"
  }
},
{
  "type": "node",
  "id": 2074228091,
  "lat": 27.7230746,
  "lon": 85.3214621,
  "tags": {
    "amenity": "restaurant",
    "name": "Asian Village Restaurant and Bar"
  }
},
{
  "type": "node",
  "id": 2074278687,
  "lat": 27.7306908,
  "lon": 85.3258394,
  "tags": {
    "amenity": "cafe",
    "name": "Centre Point Cafe"
  }
},
{
  "type": "node",
  "id": 2074278689,
  "lat": 27.7302256,
  "lon": 85.3253161,
  "tags": {
    "amenity": "restaurant",
    "name": "Down Town Tandoori Restaurant",
    "phone": "+977-01-4420148"
  }
},
{
  "type": "node",
  "id": 2074278692,
  "lat": 27.7302809,
  "lon": 85.3256093,
  "tags": {
    "amenity": "restaurant",
    "name": "The Venue Restaurant & Bar"
  }
},
{
  "type": "node",
  "id": 2074428014,
  "lat": 27.7459200,
  "lon": 85.3556462,
  "tags": {
    "amenity": "fast_food",
    "name": "Makulu Restaurant and Momo Hotel"
  }
},
{
  "type": "node",
  "id": 2074428015,
  "lat": 27.7454842,
  "lon": 85.3580451,
  "tags": {
    "amenity": "restaurant",
    "name": "Mankamana Height Family Restaurant"
  }
},
{
  "type": "node",
  "id": 2075959193,
  "lat": 27.6800035,
  "lon": 85.3159514,
  "tags": {
    "addr:city": "यल",
    "addr:country": "NP",
    "addr:postcode": "00977",
    "addr:state": "Madhyamanchal",
    "addr:street": "Krishna galli",
    "amenity": "restaurant",
    "name": "Casa de Cass",
    "name:en": "Casa de Cass"
  }
},
{
  "type": "node",
  "id": 2077086064,
  "lat": 27.7251860,
  "lon": 85.3609636,
  "tags": {
    "amenity": "restaurant",
    "name": "Satkar Restaurant"
  }
},
{
  "type": "node",
  "id": 2077086077,
  "lat": 27.7253450,
  "lon": 85.3610355,
  "tags": {
    "amenity": "restaurant",
    "cuisine": "pizza",
    "name": "Best Pizza"
  }
},
{
  "type": "node",
  "id": 2077185183,
  "lat": 27.7397871,
  "lon": 85.3285564,
  "tags": {
    "amenity": "fast_food",
    "name": "Chamling Khaja Ghar"
  }
},
{
  "type": "node",
  "id": 2077194590,
  "lat": 27.7415087,
  "lon": 85.3298156,
  "tags": {
    "amenity": "restaurant",
    "name": "Diyalo Foodland",
    "phone": "014359000",
    "toilets:wheelchair": "no",
    "wheelchair": "yes"
  }
},
{
  "type": "node",
  "id": 2077194592,
  "lat": 27.7419992,
  "lon": 85.3310492,
  "tags": {
    "amenity": "cafe",
    "name": "80's Cafe",
    "phone": "016211237"
  }
},
{
  "type": "node",
  "id": 2077198598,
  "lat": 27.7404883,
  "lon": 85.3297240,
  "tags": {
    "amenity": "restaurant",
    "name": "Kasaudi Tass ghar And Sekuwa Corner"
  }
},
{
  "type": "node",
  "id": 2077209026,
  "lat": 27.7418135,
  "lon": 85.3321541,
  "tags": {
    "amenity": "restaurant",
    "name": "The KABAB Center And Restaurent"
  }
},
{
  "type": "node",
  "id": 2077238425,
  "lat": 27.7385718,
  "lon": 85.3252583,
  "tags": {
    "amenity": "cafe",
    "name": "New Horizon cafe"
  }
},
{
  "type": "node",
  "id": 2077238426,
  "lat": 27.7396353,
  "lon": 85.3269549,
  "tags": {
    "amenity": "cafe",
    "name": "Oasis Cafe",
    "phone": "014384282, 014388682"
  }
},
{
  "type": "node",
  "id": 2079502752,
  "lat": 27.7423306,
  "lon": 85.3332257,
  "tags": {
    "amenity": "cafe",
    "name": "Green Belt Momo centre"
  }
},
{
  "type": "node",
  "id": 2079502754,
  "lat": 27.7423777,
  "lon": 85.3330513,
  "tags": {
    "amenity": "restaurant",
    "name": "KFC Fast Food"
  }
},
{
  "type": "node",
  "id": 2079528310,
  "lat": 27.7350543,
  "lon": 85.3201136,
  "tags": {
    "amenity": "fast_food",
    "name": "Shrestha Bhojanalaya"
  }
},
{
  "type": "node",
  "id": 2079575202,
  "lat": 27.7356095,
  "lon": 85.3216488,
  "tags": {
    "amenity": "restaurant",
    "name": "Hari Khaja Ghar"
  }
},
{
  "type": "node",
  "id": 2079583996,
  "lat": 27.7354371,
  "lon": 85.3212593,
  "tags": {
    "amenity": "fast_food",
    "name": "Neelam Khana Ra Khaja Ghar"
  }
},
{
  "type": "node",
  "id": 2079583997,
  "lat": 27.7356475,
  "lon": 85.3217175,
  "tags": {
    "amenity": "restaurant",
    "name": "Purbeli Khana Khaja Ghar",
    "name:en": "Purbeli Khana Khaja Ghar",
    "name:ne": ""
  }
},
{
  "type": "node",
  "id": 2079675403,
  "lat": 27.7422975,
  "lon": 85.3337253,
  "tags": {
    "amenity": "internet_cafe",
    "internet_access": "terminal",
    "name": "Central Craze Cyber"
  }
},
{
  "type": "node",
  "id": 2079675411,
  "lat": 27.7424652,
  "lon": 85.3337387,
  "tags": {
    "amenity": "restaurant",
    "name": "Khadka Khaja Ghar"
  }
},
{
  "type": "node",
  "id": 2079675421,
  "lat": 27.7429291,
  "lon": 85.3337462,
  "tags": {
    "amenity": "restaurant",
    "name": "Road Side Kitchen"
  }
},
{
  "type": "node",
  "id": 2079679710,
  "lat": 27.7383830,
  "lon": 85.3247268,
  "tags": {
    "amenity": "fast_food",
    "name": "Dhapasi Momo Center"
  }
},
{
  "type": "node",
  "id": 2079679713,
  "lat": 27.7383750,
  "lon": 85.3246193,
  "tags": {
    "amenity": "fast_food",
    "name": "Kumari Khaja Ghar"
  }
},
{
  "type": "node",
  "id": 2082921627,
  "lat": 27.7034370,
  "lon": 85.3103733,
  "tags": {
    "amenity": "cafe",
    "name": "शिशा क्याफे र लाउन्ज",
    "name:en": "Shisha Cafe and Lounge",
    "name:ne": "शिशा क्याफे र लाउन्ज"
  }
},
{
  "type": "node",
  "id": 2082971961,
  "lat": 27.7183985,
  "lon": 85.3367030,
  "tags": {
    "amenity": "fast_food",
    "name": "Top Area Khaja Ghar"
  }
},
{
  "type": "node",
  "id": 2082978247,
  "lat": 27.7185833,
  "lon": 85.3382013,
  "tags": {
    "amenity": "fast_food",
    "name": "Tandoori Point"
  }
},
{
  "type": "node",
  "id": 2082983569,
  "lat": 27.7183327,
  "lon": 85.3389954,
  "tags": {
    "amenity": "fast_food",
    "name": "Newari Khaja Ghar"
  }
},
{
  "type": "node",
  "id": 2082987667,
  "lat": 27.7204050,
  "lon": 85.3393168,
  "tags": {
    "amenity": "fast_food",
    "cuisine": "momo",
    "name": "Friendship Khaja Ghar and Momo",
    "smoking": "yes",
    "wheelchair": "yes"
  }
},
{
  "type": "node",
  "id": 2082988632,
  "lat": 27.7209147,
  "lon": 85.3315150,
  "tags": {
    "amenity": "cafe",
    "name": "A to Z Bakery Cafe"
  }
},
{
  "type": "node",
  "id": 2082988634,
  "lat": 27.7200760,
  "lon": 85.3311509,
  "tags": {
    "amenity": "fast_food",
    "name": "Bhat Bhateni Naan and Sekuwa Corner"
  }
},
{
  "type": "node",
  "id": 2083084810,
  "lat": 27.7220588,
  "lon": 85.3384648,
  "tags": {
    "amenity": "restaurant",
    "name": "Khaja Ghar and Shekuwa Corner"
  }
},
{
  "type": "node",
  "id": 2083721972,
  "lat": 27.7035939,
  "lon": 85.3076355,
  "tags": {
    "amenity": "cafe",
    "name": "Everest Tea House"
  }
},
{
  "type": "node",
  "id": 2083721999,
  "lat": 27.7035672,
  "lon": 85.3084575,
  "tags": {
    "amenity": "restaurant",
    "bar": "yes",
    "cuisine": "bakery",
    "internet_access": "wlan",
    "name": "Layaku",
    "name:en": "Layaku Cafe"
  }
},
{
  "type": "node",
  "id": 2083743541,
  "lat": 27.7044779,
  "lon": 85.3061950,
  "tags": {
    "amenity": "restaurant",
    "name": "De Kumari Restaurant"
  }
},
{
  "type": "node",
  "id": 2083743586,
  "lat": 27.7044882,
  "lon": 85.3062093,
  "tags": {
    "amenity": "cafe",
    "name": "बज्र क्याफे",
    "name:en": "The Bajra Cafe",
    "name:ne": "बज्र क्याफे"
  }
},
{
  "type": "node",
  "id": 2084372327,
  "lat": 27.7216891,
  "lon": 85.3355606,
  "tags": {
    "amenity": "cafe",
    "name": "Sarita Bakery & Cafe"
  }
},
{
  "type": "node",
  "id": 2085375288,
  "lat": 27.7125787,
  "lon": 85.3527403,
  "tags": {
    "amenity": "restaurant",
    "name": "Paras Catering"
  }
},
{
  "type": "node",
  "id": 2085898921,
  "lat": 27.7165312,
  "lon": 85.3105247,
  "tags": {
    "amenity": "fast_food",
    "check_date": "2023-10-12",
    "name": "B.K's Place"
  }
},
{
  "type": "node",
  "id": 2087434216,
  "lat": 27.7181666,
  "lon": 85.3347418,
  "tags": {
    "amenity": "fast_food",
    "name": "Asmita fast food and Newari khaja ghar"
  }
},
{
  "type": "node",
  "id": 2087434226,
  "lat": 27.7181340,
  "lon": 85.3365354,
  "tags": {
    "amenity": "fast_food",
    "name": "Ganga Khaja Ghar"
  }
},
{
  "type": "node",
  "id": 2088113308,
  "lat": 27.7246479,
  "lon": 85.3226508,
  "tags": {
    "amenity": "fast_food",
    "name": "New Paradise Fast Food"
  }
},
{
  "type": "node",
  "id": 2088458819,
  "lat": 27.7214106,
  "lon": 85.3381442,
  "tags": {
    "amenity": "fast_food",
    "name": "Darjeeling Hotel"
  }
},
{
  "type": "node",
  "id": 2088458828,
  "lat": 27.7215299,
  "lon": 85.3364962,
  "tags": {
    "amenity": "fast_food",
    "name": "Pema Hotel"
  }
},
{
  "type": "node",
  "id": 2088458830,
  "lat": 27.7217206,
  "lon": 85.3359564,
  "tags": {
    "amenity": "fast_food",
    "name": "Pradip Family Restaurant"
  }
},
{
  "type": "node",
  "id": 2088458832,
  "lat": 27.7213424,
  "lon": 85.3377980,
  "tags": {
    "amenity": "cafe",
    "name": "Radhe Radhe Bakery Cafe"
  }
},
{
  "type": "node",
  "id": 2088458837,
  "lat": 27.7218345,
  "lon": 85.3358964,
  "tags": {
    "amenity": "fast_food",
    "name": "याचपा म:म:",
    "name:en": "Yachapa Mo:Mo",
    "name:ne": "याचपा म:म:"
  }
},
{
  "type": "node",
  "id": 2089552900,
  "lat": 27.7204442,
  "lon": 85.3246905,
  "tags": {
    "amenity": "restaurant",
    "name": "A-One Momo"
  }
},
{
  "type": "node",
  "id": 2089705044,
  "lat": 27.7287779,
  "lon": 85.3253340,
  "tags": {
    "amenity": "restaurant",
    "name": "Charikot Khaja Ghar"
  }
},
{
  "type": "node",
  "id": 2090601780,
  "lat": 27.7184230,
  "lon": 85.3189324,
  "tags": {
    "amenity": "cafe",
    "level": "5",
    "name": "Barista Lavazza"
  }
},
{
  "type": "node",
  "id": 2090601787,
  "lat": 27.7179360,
  "lon": 85.3189386,
  "tags": {
    "air_conditioning": "no",
    "amenity": "fast_food",
    "indoor_seating": "yes",
    "outdoor_seating": "no",
    "smoking": "yes"
  }
},
{
  "type": "node",
  "id": 2090613253,
  "lat": 27.7188291,
  "lon": 85.3204039,
  "tags": {
    "amenity": "restaurant",
    "name": "Tej Bhawan Restaurant and Bar"
  }
},
{
  "type": "node",
  "id": 2090620860,
  "lat": 27.7180307,
  "lon": 85.3210819,
  "tags": {
    "amenity": "restaurant",
    "name": "Tukche Thakali Kitchen"
  }
},
{
  "type": "node",
  "id": 2090623548,
  "lat": 27.7179881,
  "lon": 85.3217275,
  "tags": {
    "amenity": "cafe",
    "name": "दरबार क्याफे र फास्ट फूड",
    "name:en": "Durbar Cafe and Fast Food",
    "name:ne": "दरबार क्याफे र फास्ट फूड"
  }
},
{
  "type": "node",
  "id": 2090626818,
  "lat": 27.7179350,
  "lon": 85.3307553,
  "tags": {
    "amenity": "cafe",
    "name": "Falcha cafe"
  }
},
{
  "type": "node",
  "id": 2090732553,
  "lat": 27.7174037,
  "lon": 85.3251821,
  "tags": {
    "amenity": "cafe",
    "name": "Peace Corner Food Cafe"
  }
},
{
  "type": "node",
  "id": 2090735351,
  "lat": 27.7169692,
  "lon": 85.3333621,
  "tags": {
    "amenity": "cafe",
    "name": "अनु बेकरी र कफी पसल",
    "name:en": "Anu Bakery and Coffee shop"
  }
},
{
  "type": "node",
  "id": 2090735354,
  "lat": 27.7165157,
  "lon": 85.3330091,
  "tags": {
    "amenity": "cafe",
    "name": "BNR Coffee Shop and Cold Store",
    "name:en": "B & R Cafe"
  }
},
{
  "type": "node",
  "id": 2090735373,
  "lat": 27.7169390,
  "lon": 85.3334552,
  "tags": {
    "amenity": "fast_food",
    "name": "गहना पोखरी खजा घर",
    "name:en": "Gahana Pokhari Khaja Ghar",
    "name:ne": "गहना पोखरी खजा घर"
  }
},
{
  "type": "node",
  "id": 2091833588,
  "lat": 27.7211168,
  "lon": 85.3380344,
  "tags": {
    "amenity": "fast_food",
    "name": "Bishalnagar Momo & Fast Food"
  }
},
{
  "type": "node",
  "id": 2091833637,
  "lat": 27.7197760,
  "lon": 85.3373561,
  "tags": {
    "amenity": "cafe",
    "name": "Sushant Bakery Cafe"
  }
},
{
  "type": "node",
  "id": 2091834009,
  "lat": 27.7174137,
  "lon": 85.3282974,
  "tags": {
    "amenity": "restaurant",
    "name": "Robben's Restaurant and Bar"
  }
},
{
  "type": "node",
  "id": 2091834010,
  "lat": 27.7175532,
  "lon": 85.3281452,
  "tags": {
    "amenity": "restaurant",
    "indoor_seating": "yes",
    "name": "Tama",
    "outdoor_seating": "no"
  }
},
{
  "type": "node",
  "id": 2094299959,
  "lat": 27.7159973,
  "lon": 85.3319580,
  "tags": {
    "amenity": "fast_food",
    "building": "shed",
    "name": "New Manmaneshwori Khaja Ghar",
    "name:en": "New Manmaneshwori Khaja Ghar"
  }
},
{
  "type": "node",
  "id": 2097704747,
  "lat": 27.7106680,
  "lon": 85.3177124,
  "tags": {
    "amenity": "cafe",
    "name": "Coffee Express"
  }
},
{
  "type": "node",
  "id": 2097794105,
  "lat": 27.7306778,
  "lon": 85.3345111,
  "tags": {
    "amenity": "restaurant",
    "name": "कालिन्पोङ रेस्टुरेन्ट",
    "name:en": "Kalinpong Restaurant",
    "name:ne": "कालिन्पोङ रेस्टुरेन्ट"
  }
},
{
  "type": "node",
  "id": 2102915563,
  "lat": 27.7127467,
  "lon": 85.3281667,
  "tags": {
    "amenity": "fast_food"
  }
},
{
  "type": "node",
  "id": 2102915565,
  "lat": 27.7127512,
  "lon": 85.3281346,
  "tags": {
    "amenity": "fast_food"
  }
},
{
  "type": "node",
  "id": 2102953729,
  "lat": 27.7129212,
  "lon": 85.3278954,
  "tags": {
    "amenity": "fast_food",
    "name": "Lunch Plaza"
  }
},
{
  "type": "node",
  "id": 2108082398,
  "lat": 27.6689309,
  "lon": 85.2768582,
  "tags": {
    "amenity": "fast_food",
    "name": "MoMo Center"
  }
},
{
  "type": "node",
  "id": 2108676793,
  "lat": 27.7095658,
  "lon": 85.3273158,
  "tags": {
    "amenity": "fast_food",
    "name": "Kathmandu Fast Food"
  }
},
{
  "type": "node",
  "id": 2110391641,
  "lat": 27.6706835,
  "lon": 85.2790149,
  "tags": {
    "addr:street": "Dhokashi",
    "amenity": "cafe",
    "name": "Prashanna's Cafe",
    "phone": "9840033867"
  }
},
{
  "type": "node",
  "id": 2111924049,
  "lat": 27.7089027,
  "lon": 85.2891380,
  "tags": {
    "amenity": "cafe",
    "name": "Bajra Cafe"
  }
},
{
  "type": "node",
  "id": 2117332527,
  "lat": 27.6806586,
  "lon": 85.3104612,
  "tags": {
    "addr:postcode": "44690",
    "addr:street": "अरुन थापा मुर्ति चोक",
    "amenity": "cafe",
    "cuisine": "coffee_shop",
    "email": "info@topoftheworldcoffee.com",
    "internet_access": "wlan",
    "name": "Top Of The World Coffee",
    "name:en": "Rock Beans Coffee",
    "opening_hours": "Mo-Su 09:00-20:00",
    "phone": "5013583; 9803510477",
    "smoking": "outside",
    "source": "local_knowledge",
    "website": "http://www.topoftheworldcoffee.com",
    "wifi": "free"
  }
},
{
  "type": "node",
  "id": 2122383300,
  "lat": 27.6809669,
  "lon": 85.2788988,
  "tags": {
    "amenity": "restaurant",
    "name": "ROSE GARDEN RESTURENT"
  }
},
{
  "type": "node",
  "id": 2122384471,
  "lat": 27.6990789,
  "lon": 85.2824446,
  "tags": {
    "amenity": "restaurant",
    "designation": "CHITWAN TASS GHAR",
    "name": "Sathi Bhai Restaurant"
  }
},
{
  "type": "node",
  "id": 2122394955,
  "lat": 27.6937402,
  "lon": 85.2824554,
  "tags": {
    "amenity": "cafe",
    "name": "Peace Zone Cafe"
  }
},
{
  "type": "node",
  "id": 2122397325,
  "lat": 27.6935692,
  "lon": 85.2832600,
  "tags": {
    "amenity": "fast_food",
    "cuisine": "mexican",
    "name": "PICK AND MOVE RESTURENT"
  }
},
{
  "type": "node",
  "id": 2127154507,
  "lat": 27.7187799,
  "lon": 85.3082689,
  "tags": {
    "amenity": "restaurant",
    "name": "Tass & Sekuwa Mahal (Chitwan's)"
  }
},
{
  "type": "node",
  "id": 2127168040,
  "lat": 27.7183737,
  "lon": 85.3111701,
  "tags": {
    "amenity": "restaurant",
    "cuisine": "local",
    "name": "न्यू एभरेष्ट मःमः सेन्टर",
    "name:en": "New Everest Momo Centre",
    "name:ne": "न्यू एभरेष्ट मःमः सेन्टर"
  }
},
{
  "type": "node",
  "id": 2127192048,
  "lat": 27.7179387,
  "lon": 85.3067821,
  "tags": {
    "amenity": "restaurant",
    "name": "unplugged restro & bar"
  }
},
{
  "type": "node",
  "id": 2127247379,
  "lat": 27.6079399,
  "lon": 85.3322833,
  "tags": {
    "amenity": "restaurant",
    "name": "Phulbari Restaurant"
  }
},
{
  "type": "node",
  "id": 2127657061,
  "lat": 27.7346676,
  "lon": 85.3421882,
  "tags": {
    "amenity": "restaurant",
    "name": "Neighborhood Cafe and Grill"
  }
},
{
  "type": "node",
  "id": 2130647506,
  "lat": 27.7176105,
  "lon": 85.3060307,
  "tags": {
    "amenity": "fast_food",
    "name": "Kathmandu fast food cafe'"
  }
},
{
  "type": "node",
  "id": 2133391518,
  "lat": 27.7097043,
  "lon": 85.4150866,
  "tags": {
    "amenity": "cafe",
    "name": "Cafe nec"
  }
},
{
  "type": "node",
  "id": 2141203076,
  "lat": 27.7081891,
  "lon": 85.3277285,
  "tags": {
    "amenity": "restaurant",
    "cuisine": "american",
    "name": "Bryan's Grill",
    "name:en": "dai"
  }
},
{
  "type": "node",
  "id": 2144299583,
  "lat": 27.7244731,
  "lon": 85.3311136,
  "tags": {
    "amenity": "cafe",
    "name": "Tukche Cafe"
  }
},
{
  "type": "node",
  "id": 2152851362,
  "lat": 27.7085187,
  "lon": 85.4144420,
  "tags": {
    "amenity": "restaurant",
    "diet:vegetarian": "only",
    "fixme": "phone number is invalid",
    "name": "NEC Restaurant",
    "phone": "+977 500345"
  }
},
{
  "type": "node",
  "id": 2152922729,
  "lat": 27.7079811,
  "lon": 85.4141951,
  "tags": {
    "amenity": "restaurant",
    "name": "Saroj Bhojanalaya"
  }
},
{
  "type": "node",
  "id": 2152934763,
  "lat": 27.7110009,
  "lon": 85.4157949,
  "tags": {
    "amenity": "cafe",
    "name": "Coffee shop"
  }
},
{
  "type": "node",
  "id": 2160902984,
  "lat": 27.7126956,
  "lon": 85.3608108,
  "tags": {
    "amenity": "restaurant",
    "name": "Farmhouse Resturant"
  }
},
{
  "type": "node",
  "id": 2164025605,
  "lat": 27.6892373,
  "lon": 85.3121829,
  "tags": {
    "amenity": "cafe",
    "cuisine": "coffee_shop",
    "name": "College Cafe"
  }
},
{
  "type": "node",
  "id": 2164905855,
  "lat": 27.6921279,
  "lon": 85.3155500,
  "tags": {
    "amenity": "restaurant",
    "cuisine": "indian",
    "name": "Sajan Goth Sweets Shop"
  }
},
{
  "type": "node",
  "id": 2164947762,
  "lat": 27.6792025,
  "lon": 85.3465925,
  "tags": {
    "alt_name": "Kentucky Fried Chicken",
    "amenity": "fast_food",
    "brand": "KFC",
    "brand:wikidata": "Q524757",
    "cuisine": "chicken",
    "name": "KFC",
    "phone": "9875432",
    "takeaway": "yes"
  }
},
{
  "type": "node",
  "id": 2164947771,
  "lat": 27.6791740,
  "lon": 85.3480707,
  "tags": {
    "amenity": "restaurant"
  }
},
{
  "type": "node",
  "id": 2164964250,
  "lat": 27.6701365,
  "lon": 85.3096762,
  "tags": {
    "amenity": "cafe",
    "name": "ASSA Cafe"
  }
},
{
  "type": "node",
  "id": 2164964253,
  "lat": 27.6697615,
  "lon": 85.3060174,
  "tags": {
    "amenity": "fast_food",
    "name": "क्वालिटी फूड क्याफे",
    "name:en": "Kwality Food Cafe",
    "name:ne": "क्वालिटी फूड क्याफे"
  }
},
{
  "type": "node",
  "id": 2165161995,
  "lat": 27.7123180,
  "lon": 85.3626220,
  "tags": {
    "amenity": "restaurant",
    "name": "San Riverside Resturant"
  }
},
{
  "type": "node",
  "id": 2165197396,
  "lat": 27.7345532,
  "lon": 85.3422644,
  "tags": {
    "addr:street": "Chappalkarkhana",
    "amenity": "fast_food",
    "name": "A-One Fast Food Restaurant"
  }
},
{
  "type": "node",
  "id": 2165231925,
  "lat": 27.7140846,
  "lon": 85.3099170,
  "tags": {
    "amenity": "restaurant",
    "name": "Tamas Restaurant"
  }
},
{
  "type": "node",
  "id": 2165424716,
  "lat": 27.6971940,
  "lon": 85.3050804,
  "tags": {
    "amenity": "fast_food",
    "name": "Kwality Fast Food Cafe"
  }
},
{
  "type": "node",
  "id": 2165495763,
  "lat": 27.6753319,
  "lon": 85.3027813,
  "tags": {
    "addr:street": "Ring Road, Dhobhighat, Lalitpur",
    "amenity": "restaurant",
    "name": "Sidhartha Cottage Resturant"
  }
},
{
  "type": "node",
  "id": 2166417287,
  "lat": 27.7012362,
  "lon": 85.3110726,
  "tags": {
    "amenity": "cafe",
    "name": "The Bakery Cafe"
  }
},
{
  "type": "node",
  "id": 2166417292,
  "lat": 27.6940995,
  "lon": 85.3125904,
  "tags": {
    "amenity": "restaurant",
    "name": "राइस एण्ड बाउल रेस्टुरेन्ट",
    "name:en": "Rice and Bowl Restaurant",
    "name:ne": "राइस एण्ड बाउल रेस्टुरेन्ट"
  }
},
{
  "type": "node",
  "id": 2166417323,
  "lat": 27.6954768,
  "lon": 85.3103347,
  "tags": {
    "addr:housenumber": "8",
    "amenity": "restaurant",
    "designation": "Party Palace",
    "name": "बैथक कार्यक्रम स्थल",
    "name:en": "Baithak Events Venue",
    "name:ne": "बैथक कार्यक्रम स्थल",
    "toilets:wheelchair": "no",
    "wheelchair": "yes"
  }
},
{
  "type": "node",
  "id": 2166417329,
  "lat": 27.7012030,
  "lon": 85.3113193,
  "tags": {
    "amenity": "restaurant",
    "name": "पानस रेस्टुरेन्ट",
    "name:en": "Panas Restaurant",
    "name:ne": "पानस रेस्टुरेन्ट"
  }
},
{
  "type": "node",
  "id": 2166426553,
  "lat": 27.6980112,
  "lon": 85.3037582,
  "tags": {
    "amenity": "restaurant",
    "name": "Viva Banquet"
  }
},
{
  "type": "node",
  "id": 2166426559,
  "lat": 27.6979227,
  "lon": 85.2984376,
  "tags": {
    "amenity": "restaurant",
    "name": "Friends Party Centre"
  }
},
{
  "type": "node",
  "id": 2166592516,
  "lat": 27.7113258,
  "lon": 85.3173738,
  "tags": {
    "amenity": "cafe",
    "name": "The Coffee Shop",
    "name:kr": "명동"
  }
},
{
  "type": "node",
  "id": 2166593032,
  "lat": 27.7096867,
  "lon": 85.3167450,
  "tags": {
    "amenity": "restaurant",
    "lounge": "yes",
    "name": "विन्टेज",
    "name:en": "Vintage",
    "name:ne": "विन्टेज"
  }
},
{
  "type": "node",
  "id": 2166593033,
  "lat": 27.7106040,
  "lon": 85.3180015,
  "tags": {
    "amenity": "restaurant",
    "name": "Red Carpet",
    "name:en": "Red Carpet Restro & Bar",
    "opening_hours": "Mo-Fr 10:00-19:00; Su 10:00-11:00"
  }
},
{
  "type": "node",
  "id": 2166593496,
  "lat": 27.7105055,
  "lon": 85.3177578,
  "tags": {
    "amenity": "cafe",
    "name": "Magic Beans",
    "opening_hours": "Mo-Fr 10:00-19:00; Su 10:00-11:00"
  }
},
{
  "type": "node",
  "id": 2166597514,
  "lat": 27.7037460,
  "lon": 85.3076481,
  "tags": {
    "amenity": "cafe",
    "name": "Himalayan Java"
  }
},
{
  "type": "node",
  "id": 2166600599,
  "lat": 27.7034539,
  "lon": 85.3076669,
  "tags": {
    "amenity": "restaurant",
    "name": "Bhatti newari cuisine"
  }
},
{
  "type": "node",
  "id": 2166600602,
  "lat": 27.7034657,
  "lon": 85.3073182,
  "tags": {
    "amenity": "restaurant"
  }
},
{
  "type": "node",
  "id": 2166602188,
  "lat": 27.7034657,
  "lon": 85.3072565,
  "tags": {
    "amenity": "restaurant",
    "name": "VIshram"
  }
},
{
  "type": "node",
  "id": 2166606917,
  "lat": 27.7025040,
  "lon": 85.3079539,
  "tags": {
    "amenity": "cafe",
    "name": "Snowman"
  }
},
{
  "type": "node",
  "id": 2166613272,
  "lat": 27.7030335,
  "lon": 85.3076911,
  "tags": {
    "amenity": "restaurant",
    "name": "Tik i Jhyaa"
  }
},
{
  "type": "node",
  "id": 2166614273,
  "lat": 27.7030906,
  "lon": 85.3075160,
  "tags": {
    "amenity": "restaurant",
    "check_date": "2023-11-12",
    "name": "Firefly"
  }
},
{
  "type": "node",
  "id": 2166616740,
  "lat": 27.7036130,
  "lon": 85.3080049,
  "tags": {
    "amenity": "fast_food"
  }
},
{
  "type": "node",
  "id": 2168641793,
  "lat": 27.6738175,
  "lon": 85.3338598,
  "tags": {
    "amenity": "restaurant"
  }
},
{
  "type": "node",
  "id": 2174589424,
  "lat": 27.6948877,
  "lon": 85.3405908,
  "tags": {
    "amenity": "cafe",
    "name": "Lumbini Cafe"
  }
},
{
  "type": "node",
  "id": 2195425745,
  "lat": 27.6755507,
  "lon": 85.3157374,
  "tags": {
    "addr:housename": "YAPA VAWAN",
    "addr:street": "PULCHOWK",
    "amenity": "restaurant",
    "cuisine": "asian",
    "name": "4 BEES FAMILY RESTAURANT AND BAR WITH GAJAL"
  }
},
{
  "type": "node",
  "id": 2201363927,
  "lat": 27.7019585,
  "lon": 85.3403413,
  "tags": {
    "amenity": "restaurant"
  }
},
{
  "type": "node",
  "id": 2212475436,
  "lat": 27.7204347,
  "lon": 85.3603152,
  "tags": {
    "amenity": "restaurant",
    "cuisine": "regional",
    "microbrewery": "yes",
    "name": "Maya Didi Momo Pasal"
  }
},
{
  "type": "node",
  "id": 2212480950,
  "lat": 27.7202820,
  "lon": 85.3629698,
  "tags": {
    "amenity": "restaurant",
    "name": "Mongolian Chinese Kitchen"
  }
},
{
  "type": "node",
  "id": 2212506691,
  "lat": 27.7098873,
  "lon": 85.3181147,
  "tags": {
    "amenity": "cafe",
    "name": "बेकरी क्याफे",
    "name:en": "Bakery Cafe",
    "name:ne": "बेकरी क्याफे"
  }
},
{
  "type": "node",
  "id": 2212605788,
  "lat": 27.7123375,
  "lon": 85.3131790,
  "tags": {
    "amenity": "restaurant",
    "check_date": "2024-03-12",
    "cuisine": "indian;nepali",
    "internet_access": "wlan",
    "internet_access:fee": "customers",
    "name": "Graveaty",
    "name:en": "Graveaty"
  }
},
{
  "type": "node",
  "id": 2212767321,
  "lat": 27.7227728,
  "lon": 85.3631380,
  "tags": {
    "amenity": "restaurant",
    "cuisine": "Mo:Mo",
    "name": "Bharyang Muni Ko Momo Pasal"
  }
},
{
  "type": "node",
  "id": 2214390815,
  "lat": 27.7251935,
  "lon": 85.3309220,
  "tags": {
    "amenity": "restaurant",
    "name": "Kyapchakii Restaurant"
  }
},
{
  "type": "node",
  "id": 2236165892,
  "lat": 27.7172370,
  "lon": 85.3471063,
  "tags": {
    "amenity": "restaurant",
    "name:en": "Impasto Pizzeria"
  }
},
{
  "type": "node",
  "id": 2236942184,
  "lat": 27.6953955,
  "lon": 85.3408978,
  "tags": {
    "amenity": "cafe",
    "name": "Meet Point Cafe"
  }
},
{
  "type": "node",
  "id": 2249145058,
  "lat": 27.6759702,
  "lon": 85.3588180,
  "tags": {
    "amenity": "restaurant",
    "name": "Tapari Restaurant"
  }
},
{
  "type": "node",
  "id": 2272268772,
  "lat": 27.7038502,
  "lon": 85.3083308,
  "tags": {
    "amenity": "fast_food",
    "name": "Burger Point"
  }
},
{
  "type": "node",
  "id": 2297964825,
  "lat": 27.7209107,
  "lon": 85.3619714,
  "tags": {
    "amenity": "cafe",
    "check_date": "2025-10-30",
    "check_date:diet:vegetarian": "2025-10-30",
    "diet:vegetarian": "yes",
    "email": "info@roadhousenepal.com",
    "name": "Roadhouse Cafe",
    "opening_hours": "Mo-Su 07:00-22:00",
    "phone": "+977-01-4916446;+977-9863029297",
    "website": "https://roadhousenepal.com/restaurants/roadhouse-cafe-boudha/"
  }
},
{
  "type": "node",
  "id": 2297964894,
  "lat": 27.7195720,
  "lon": 85.3204067,
  "tags": {
    "amenity": "cafe",
    "operator": "Hotel Tibet"
  }
},
{
  "type": "node",
  "id": 2323975731,
  "lat": 27.6492794,
  "lon": 85.3374217,
  "tags": {
    "amenity": "cafe"
  }
},
{
  "type": "node",
  "id": 2324993855,
  "lat": 27.7772444,
  "lon": 85.4341221,
  "tags": {
    "amenity": "restaurant",
    "name": "Hotel prabesh"
  }
},
{
  "type": "node",
  "id": 2338445611,
  "lat": 27.6019990,
  "lon": 85.3664677,
  "tags": {
    "amenity": "restaurant",
    "name": "Brindavan Resort"
  }
},
{
  "type": "node",
  "id": 2338445619,
  "lat": 27.6017905,
  "lon": 85.3667683,
  "tags": {
    "amenity": "restaurant",
    "name": "Sai Ban Restaurant"
  }
},
{
  "type": "node",
  "id": 2338445620,
  "lat": 27.6068026,
  "lon": 85.3617494,
  "tags": {
    "amenity": "restaurant",
    "name": "Welcome Family Cottage"
  }
},
{
  "type": "node",
  "id": 2354597322,
  "lat": 27.7291004,
  "lon": 85.3031752,
  "tags": {
    "amenity": "fast_food",
    "name": "Quality Feed And Cold Storage pv. Ltd"
  }
},
{
  "type": "node",
  "id": 2415851429,
  "lat": 27.6744070,
  "lon": 85.3925400,
  "tags": {
    "amenity": "cafe",
    "name": "Khaja Ghar"
  }
},
{
  "type": "node",
  "id": 2463737039,
  "lat": 27.7205826,
  "lon": 85.3639704,
  "tags": {
    "amenity": "restaurant",
    "cuisine": "chinese",
    "name": "Mechung"
  }
},
{
  "type": "node",
  "id": 2476446142,
  "lat": 27.7036353,
  "lon": 85.3105907,
  "tags": {
    "amenity": "restaurant",
    "name": "Koyla Restro & Bar"
  }
},
{
  "type": "node",
  "id": 2477624797,
  "lat": 27.5971965,
  "lon": 85.3855993,
  "tags": {
    "amenity": "restaurant",
    "name": "shaila nibha home"
  }
},
{
  "type": "node",
  "id": 2508845823,
  "lat": 27.6770893,
  "lon": 85.3137045,
  "tags": {
    "amenity": "restaurant",
    "cuisine": "indian",
    "internet_access": "wlan",
    "name": "Mama's Curry",
    "name:en": "Mama's Curries",
    "phone": "9841412622",
    "website": "http://www.facebook.com/mamascurries",
    "wifi": "free"
  }
},
{
  "type": "node",
  "id": 2509107152,
  "lat": 27.7174315,
  "lon": 85.3384094,
  "tags": {
    "amenity": "fast_food",
    "name": "Sita Khaja Ghar"
  }
},
{
  "type": "node",
  "id": 2520619641,
  "lat": 27.6786722,
  "lon": 85.3104479,
  "tags": {
    "addr:city": "Kathmandu",
    "addr:street": "Pulchowk Jhamsikhel Marga",
    "amenity": "cafe",
    "cuisine": "burger",
    "internet_access": "wlan",
    "name": "Café Soma",
    "source": "local_knowledge",
    "website": "https://www.facebook.com/cafesoma",
    "wifi": "free"
  }
},
{
  "type": "node",
  "id": 2521940680,
  "lat": 27.6763777,
  "lon": 85.3118222,
  "tags": {
    "amenity": "fast_food",
    "cuisine": "sandwich",
    "name": "Sandwich Hub"
  }
},
{
  "type": "node",
  "id": 2521950150,
  "lat": 27.6761042,
  "lon": 85.3130233,
  "tags": {
    "alt_name": "Roadhouse",
    "amenity": "cafe",
    "cuisine": "pizza",
    "name": "Roadhouse Cafe",
    "phone": "+97715521755"
  }
},
{
  "type": "node",
  "id": 2522200805,
  "lat": 27.6850573,
  "lon": 85.3127069,
  "tags": {
    "addr:city": "Lalitpur Municipality",
    "addr:street": "Bakhundole Heights Marg",
    "amenity": "restaurant",
    "cuisine": "continental",
    "internet_access": "yes",
    "name": "तत्वा बिस्ट्रो एण्ड बार",
    "name:en": "Tattva Bistro & Bar",
    "name:ne": "तत्वा बिस्ट्रो एण्ड बार",
    "note": "Above the restaurant they have two rooms and one appartment to rent. Beautiful atmosphere and great people!",
    "smoking": "separated"
  }
},
{
  "type": "node",
  "id": 2524449206,
  "lat": 27.6802632,
  "lon": 85.3100571,
  "tags": {
    "alt_name": "Korean Taste",
    "amenity": "restaurant",
    "cuisine": "korean",
    "name": "Korean Taste Restaurant"
  }
},
{
  "type": "node",
  "id": 2543546393,
  "lat": 27.6817082,
  "lon": 85.3199675,
  "tags": {
    "addr:housename": "Pulchowk",
    "amenity": "cafe",
    "cuisine": "tea;local",
    "internet_access": "3G",
    "name": "भाउजूको भट्टी",
    "name:ne": "भाउजूको भट्टी"
  }
},
{
  "type": "node",
  "id": 2572297171,
  "lat": 27.6732438,
  "lon": 85.3141519,
  "tags": {
    "addr:city": "Jawalakhel Chowk, Lalitpur",
    "addr:housename": "The Lazy Gringo",
    "amenity": "restaurant",
    "cuisine": "mexican",
    "name": "The Lazy Gringo",
    "phone": "+977 1-2210527",
    "website": "https://www.facebook.com/LazyGringo"
  }
},
{
  "type": "node",
  "id": 2584735236,
  "lat": 27.6569487,
  "lon": 85.3329305,
  "tags": {
    "amenity": "cafe",
    "cuisine": "coffee_shop",
    "name": "AITM Tea Shop"
  }
},
{
  "type": "node",
  "id": 2584754046,
  "lat": 27.7169615,
  "lon": 85.3080370,
  "tags": {
    "addr:city": "Kathmandu",
    "addr:housename": "PAknajole, KAldhara Marga",
    "addr:postcode": "00977",
    "addr:street": "Pipalbote Marg",
    "amenity": "restaurant",
    "cuisine": "regional",
    "name": "Moon light"
  }
},
{
  "type": "node",
  "id": 2584769267,
  "lat": 27.6583085,
  "lon": 85.3239765,
  "tags": {
    "addr:housename": "Satdobato",
    "amenity": "cafe",
    "cuisine": "Taas_and_Sekuwa",
    "name": "युनिटी फूड क्याफे",
    "name:en": "Unity Food Cafe",
    "name:ne": "युनिटी फूड क्याफे",
    "phone": "01-5546651"
  }
},
{
  "type": "node",
  "id": 2584801135,
  "lat": 27.6552261,
  "lon": 85.3314591,
  "tags": {
    "amenity": "restaurant",
    "cuisine": "Tea",
    "name": "AEPC Tea Shop"
  }
},
{
  "type": "node",
  "id": 2584827587,
  "lat": 27.6587098,
  "lon": 85.3287470,
  "tags": {
    "amenity": "restaurant",
    "name": "Newari Khaja Ghar"
  }
},
{
  "type": "node",
  "id": 2638075950,
  "lat": 27.6715423,
  "lon": 85.2764525,
  "tags": {
    "amenity": "cafe",
    "cuisine": "coffee_shop",
    "internet_access": "no",
    "name": "Lila Cold Store",
    "opening_hours": "06:00-19:00",
    "website": "www.facebook.com/LilaColdStore"
  }
},
{
  "type": "node",
  "id": 2668883270,
  "lat": 27.7149790,
  "lon": 85.3103769,
  "tags": {
    "amenity": "restaurant",
    "name": "La dolce vita italian restaurant"
  }
},
{
  "type": "node",
  "id": 2684629133,
  "lat": 27.6831842,
  "lon": 85.3314489,
  "tags": {
    "amenity": "restaurant",
    "name": "galkot restaurant"
  }
},
{
  "type": "node",
  "id": 2684630120,
  "lat": 27.6850859,
  "lon": 85.3346508,
  "tags": {
    "amenity": "cafe",
    "name": "hangout"
  }
},
{
  "type": "node",
  "id": 2684686175,
  "lat": 27.7398694,
  "lon": 85.3377501,
  "tags": {
    "amenity": "fast_food",
    "brand": "Burger King",
    "brand:wikidata": "Q177054",
    "brand:wikipedia": "en:Burger King",
    "cuisine": "burger",
    "name": "Burger King",
    "takeaway": "yes"
  }
},
{
  "type": "node",
  "id": 2684756028,
  "lat": 27.6689905,
  "lon": 85.3100817,
  "tags": {
    "amenity": "cafe",
    "name": "Goel Bakery"
  }
},
{
  "type": "node",
  "id": 2684756249,
  "lat": 27.6704321,
  "lon": 85.3100777,
  "tags": {
    "amenity": "restaurant",
    "name": "Tibetan Restaurant"
  }
},
{
  "type": "node",
  "id": 2684756431,
  "lat": 27.6688312,
  "lon": 85.3098016,
  "tags": {
    "amenity": "cafe",
    "name": "Newari Fast Food"
  }
},
{
  "type": "node",
  "id": 2684757122,
  "lat": 27.6719190,
  "lon": 85.3129037,
  "tags": {
    "amenity": "cafe",
    "name": "Tandoori fast food"
  }
},
{
  "type": "node",
  "id": 2684757427,
  "lat": 27.6687439,
  "lon": 85.3097523,
  "tags": {
    "amenity": "cafe",
    "name": "momomiya darjeeling restaurant"
  }
},
{
  "type": "node",
  "id": 2684758536,
  "lat": 27.6695878,
  "lon": 85.3095754,
  "tags": {
    "amenity": "restaurant",
    "name": "catalyst cafe"
  }
},
{
  "type": "node",
  "id": 2684761311,
  "lat": 27.6708713,
  "lon": 85.3120842,
  "tags": {
    "amenity": "cafe",
    "name": "Abishek khaja Ghar"
  }
},
{
  "type": "node",
  "id": 2684763711,
  "lat": 27.6702170,
  "lon": 85.3123899,
  "tags": {
    "amenity": "cafe",
    "name": "Kathmandu Tea Room"
  }
},
{
  "type": "node",
  "id": 2684764300,
  "lat": 27.6707265,
  "lon": 85.3119549,
  "tags": {
    "amenity": "cafe",
    "name": "New Tasty Khaja Ghar"
  }
},
{
  "type": "node",
  "id": 2684764543,
  "lat": 27.6700146,
  "lon": 85.3091510,
  "tags": {
    "amenity": "restaurant",
    "name": "UK Restaurant"
  }
},
{
  "type": "node",
  "id": 2684764972,
  "lat": 27.6700282,
  "lon": 85.3091215,
  "tags": {
    "amenity": "restaurant",
    "name": "Kasthmandap Wine Gallery"
  }
},
{
  "type": "node",
  "id": 2684765220,
  "lat": 27.6703457,
  "lon": 85.3089552,
  "tags": {
    "amenity": "restaurant",
    "name": "Kancha ko bhancha"
  }
},
{
  "type": "node",
  "id": 2684766528,
  "lat": 27.6697599,
  "lon": 85.3125156,
  "tags": {
    "amenity": "cafe",
    "cuisine": "tea",
    "name": "Chiya Pasal"
  }
},
{
  "type": "node",
  "id": 2684767904,
  "lat": 27.6697063,
  "lon": 85.3125480,
  "tags": {
    "amenity": "restaurant",
    "name": "Thakali Bhancha Ghar"
  }
},
{
  "type": "node",
  "id": 2684769795,
  "lat": 27.6736870,
  "lon": 85.3119559,
  "tags": {
    "amenity": "cafe",
    "name": "Bijukchhe Khaja Ghar"
  }
},
{
  "type": "node",
  "id": 2684770259,
  "lat": 27.6719459,
  "lon": 85.3121674,
  "tags": {
    "amenity": "cafe",
    "name": "Manavog Cafe"
  }
},
{
  "type": "node",
  "id": 2684773539,
  "lat": 27.6725700,
  "lon": 85.3121973,
  "tags": {
    "amenity": "restaurant",
    "name": "Om Laxmi Tanduri Bhojanalaya"
  }
},
{
  "type": "node",
  "id": 2684776545,
  "lat": 27.6718003,
  "lon": 85.3122480,
  "tags": {
    "amenity": "restaurant",
    "name": "Sekuwa And Tass House With Resturant"
  }
},
{
  "type": "node",
  "id": 2684803815,
  "lat": 27.6720317,
  "lon": 85.3170501,
  "tags": {
    "amenity": "cafe",
    "name": "the swkuwa and tass ghar"
  }
},
{
  "type": "node",
  "id": 2684812788,
  "lat": 27.6676570,
  "lon": 85.3094719,
  "tags": {
    "amenity": "cafe",
    "name": "monu thapa khaja ghar"
  }
},
{
  "type": "node",
  "id": 2684818080,
  "lat": 27.6671784,
  "lon": 85.3163129,
  "tags": {
    "amenity": "cafe",
    "name": "Common Cafe Sekuwa Corner"
  }
},
{
  "type": "node",
  "id": 2684818086,
  "lat": 27.6672459,
  "lon": 85.3162664,
  "tags": {
    "amenity": "restaurant",
    "name": "रेड डेभिल्स रेस्टुरेन्ट एण्ड बार",
    "name:en": "The Red Devils Restaurent and Bar",
    "name:ne": "रेड डेभिल्स रेस्टुरेन्ट एण्ड बार"
  }
},
{
  "type": "node",
  "id": 2684818087,
  "lat": 27.6665351,
  "lon": 85.3142779,
  "tags": {
    "amenity": "cafe"
  }
},
{
  "type": "node",
  "id": 2684818090,
  "lat": 27.6678446,
  "lon": 85.3164552,
  "tags": {
    "amenity": "cafe"
  }
},
{
  "type": "node",
  "id": 2684818420,
  "lat": 27.6715851,
  "lon": 85.3159634,
  "tags": {
    "amenity": "cafe",
    "name": "Work N Roll",
    "opening_hours": "Mo-Su 08:00-20:00"
  }
},
{
  "type": "node",
  "id": 2686592416,
  "lat": 27.6810613,
  "lon": 85.3173660,
  "tags": {
    "amenity": "restaurant",
    "cuisine": "Mo:Mo_Specialist",
    "name": "Momo Magic",
    "phone": "5010637"
  }
},
{
  "type": "node",
  "id": 2699906123,
  "lat": 27.7276422,
  "lon": 85.3416028,
  "tags": {
    "amenity": "cafe",
    "name": "Dhumbarahi vojanalaya"
  }
},
{
  "type": "node",
  "id": 2700730521,
  "lat": 27.6543036,
  "lon": 85.3057008,
  "tags": {
    "amenity": "cafe",
    "name": "Yaktumba De-Cafe"
  }
},
{
  "type": "node",
  "id": 2702307183,
  "lat": 27.7100063,
  "lon": 85.3146783,
  "tags": {
    "amenity": "restaurant",
    "name": "मोःमोः किंग रेस्टुरेन्ट",
    "name:en": "MoMo King Restaurant",
    "name:ne": "मोःमोः किंग रेस्टुरेन्ट"
  }
},
{
  "type": "node",
  "id": 2702359050,
  "lat": 27.6538132,
  "lon": 85.3044253,
  "tags": {
    "amenity": "cafe",
    "name": "Kathmandu Coffee"
  }
},
{
  "type": "node",
  "id": 2705273551,
  "lat": 27.7150822,
  "lon": 85.3106888,
  "tags": {
    "amenity": "restaurant",
    "email": "info@nepalconnection.org.np",
    "internet_access": "wlan",
    "name": "नेपाल सम्पर्क रेष्टुरेन्ट",
    "name:en": "Nepal Connection Restaurant",
    "name:ne": "नेपाल सम्पर्क रेष्टुरेन्ट",
    "opening_hours": "Mo-Fr 09:00-21:00, Sa-Su 09:00-22:00",
    "operator": "Mahabir Pun",
    "phone": "+977 9817192766",
    "website": "http://www.nepalconnection.org.np"
  }
},
{
  "type": "node",
  "id": 2754314875,
  "lat": 27.7077309,
  "lon": 85.3251574,
  "tags": {
    "amenity": "cafe",
    "cuisine": "regional",
    "name": "Islington Canteen"
  }
},
{
  "type": "node",
  "id": 2785785596,
  "lat": 27.7179184,
  "lon": 85.3168442,
  "tags": {
    "air_conditioning": "no",
    "amenity": "cafe",
    "indoor_seating": "yes",
    "name": "Julie's Bakery Cafe",
    "outdoor_seating": "no",
    "smoking": "yes"
  }
},
{
  "type": "node",
  "id": 2790477731,
  "lat": 27.7143197,
  "lon": 85.3112403,
  "tags": {
    "amenity": "fast_food",
    "cuisine": "regional",
    "name": "मोमो हट",
    "name:en": "MoMo Hut",
    "name:ne": "मोमो हट",
    "smoking": "no",
    "wheelchair": "no"
  }
},
{
  "type": "node",
  "id": 2843350165,
  "lat": 27.7119409,
  "lon": 85.3094068,
  "tags": {
    "amenity": "restaurant",
    "name": "Mero Nepali Kitchen"
  }
},
{
  "type": "node",
  "id": 2843882040,
  "lat": 27.7179796,
  "lon": 85.3040356,
  "tags": {
    "amenity": "restaurant",
    "name": "S.M.Canteen"
  }
},
{
  "type": "node",
  "id": 2857869821,
  "lat": 27.7050061,
  "lon": 85.3086234,
  "tags": {
    "amenity": "restaurant",
    "cuisine": "asian",
    "name": "Chaska Asian Restaurant",
    "source": "GPS"
  }
},
{
  "type": "node",
  "id": 2858843075,
  "lat": 27.6866445,
  "lon": 85.3094098,
  "tags": {
    "amenity": "cafe",
    "name": "S Cafe and Coffee Shop"
  }
},
{
  "type": "node",
  "id": 2875931753,
  "lat": 27.7251886,
  "lon": 85.3312472,
  "tags": {
    "amenity": "restaurant",
    "capacity": "100",
    "cuisine": "Newari_food",
    "name": "Jaggu Mud House",
    "smoking": "yes"
  }
},
{
  "type": "node",
  "id": 2921797536,
  "lat": 27.6835109,
  "lon": 85.3118375,
  "tags": {
    "amenity": "restaurant",
    "cuisine": "international",
    "name": "कालो मरिच बार र ग्रिल",
    "name:en": "Black Pepper Bar & Grill",
    "name:ne": "कालो मरिच बार र ग्रिल"
  }
},
{
  "type": "node",
  "id": 2922941464,
  "lat": 27.6765335,
  "lon": 85.3110406,
  "tags": {
    "addr:street": "Jhamel Road",
    "amenity": "restaurant",
    "name": "Southern Comfort Restaurant & Bar",
    "operator": "Brian Kramer",
    "phone": "+97715525144"
  }
},
{
  "type": "node",
  "id": 2922943980,
  "lat": 27.6765569,
  "lon": 85.3108896,
  "tags": {
    "addr:street": "Jhamel Road",
    "amenity": "restaurant",
    "cuisine": "indian",
    "name": "Aalishan Restaurant",
    "note": "\"Authentic Mughli and Indian Cuisine\""
  }
},
{
  "type": "node",
  "id": 2978585626,
  "lat": 27.7248538,
  "lon": 85.3644964,
  "tags": {
    "alt_name": "sukkha chowmein",
    "amenity": "cafe",
    "check_date": "2025-03-31",
    "cuisine": "chinese",
    "name": "Khawa Karpo Tasty Noodle Factory",
    "phone": "9808107638,9808646143"
  }
},
{
  "type": "node",
  "id": 2990731066,
  "lat": 27.7246276,
  "lon": 85.3645888,
  "tags": {
    "amenity": "cafe",
    "name": "New Chatterbox Cafe"
  }
},
{
  "type": "node",
  "id": 2990731068,
  "lat": 27.7236776,
  "lon": 85.3333529,
  "tags": {
    "amenity": "fast_food",
    "name": "गौरीशंकर खाजा घर र मोमो सेन्टर",
    "name:en": "Gaurishankar Khaja Ghar and Momo Center",
    "name:ne": "गौरीशंकर खाजा घर र मोमो सेन्टर"
  }
},
{
  "type": "node",
  "id": 3038281087,
  "lat": 27.6641281,
  "lon": 85.3153017,
  "tags": {
    "amenity": "cafe",
    "internet_access": "wlan",
    "name": "Royal Food Cafe",
    "opening_hours": "Mo-Su 09:00-21:00",
    "phone": "015524150"
  }
},
{
  "type": "node",
  "id": 3056783005,
  "lat": 27.7001977,
  "lon": 85.3432435,
  "tags": {
    "amenity": "restaurant",
    "capacity": "20",
    "name": "Chakra Sweets",
    "note": "It is actually a sweet shop(mithai pasal) not a restaurant.",
    "opening_hours": "06:00-21:00",
    "smoking": "no"
  }
},
{
  "type": "node",
  "id": 3056783006,
  "lat": 27.6992028,
  "lon": 85.3456244,
  "tags": {
    "amenity": "restaurant",
    "capacity": "30",
    "name": "Chakra sweets",
    "name:en": "Chakra sweets",
    "name:ne": "",
    "note": "It is a sweet shop not a real restaurant",
    "opening_hours": "06:00-20:00",
    "smoking": "isolated"
  }
},
{
  "type": "node",
  "id": 3060871361,
  "lat": 27.7128527,
  "lon": 85.3112566,
  "tags": {
    "amenity": "cafe",
    "cuisine": "japanese",
    "internet_access": "wlan",
    "name": "ओफुकुरो नो अजी",
    "name:en": "Ofukuro No Aji",
    "name:ne": "ओफुकुरो नो अजी",
    "opening_hours": "Mo-Su 10:00-21:00"
  }
},
{
  "type": "node",
  "id": 3067780669,
  "lat": 27.7016515,
  "lon": 85.3106108,
  "tags": {
    "amenity": "restaurant",
    "name": "Central Cafe"
  }
},
{
  "type": "node",
  "id": 3069572514,
  "lat": 27.7071454,
  "lon": 85.3229815,
  "tags": {
    "addr:city": "Kathmandu",
    "addr:street": "Dhobidhara Marga",
    "amenity": "restaurant",
    "capacity": "100",
    "cuisine": "nepali;_indian;chinese;_italian",
    "internet_access": "wlan",
    "name": "Wifi Food Cafe",
    "name:en": "Wifi Food Cafe",
    "opening_hours": "08:00-21:00",
    "smoking": "isolated"
  }
},
{
  "type": "node",
  "id": 3069572516,
  "lat": 27.7070868,
  "lon": 85.3230587,
  "tags": {
    "addr:city": "Kathmandu",
    "addr:street": "Dhobidhara Marga",
    "amenity": "cafe",
    "cuisine": "tea,_coffee",
    "name": "गौतम बेकरी",
    "name:en": "Gautam Bakery",
    "name:ne": "गौतम बेकरी"
  }
},
{
  "type": "node",
  "id": 3069572521,
  "lat": 27.6741206,
  "lon": 85.3216033,
  "tags": {
    "addr:city": "gabahal",
    "addr:street": "pulchowk to mangalbazar road",
    "amenity": "restaurant",
    "name": "Gabahal Cafe",
    "smoking": "separated"
  }
},
{
  "type": "node",
  "id": 3069606858,
  "lat": 27.6736448,
  "lon": 85.3247219,
  "tags": {
    "addr:city": "mangalbazar",
    "amenity": "restaurant",
    "name": "hukka temple"
  }
},
{
  "type": "node",
  "id": 3072758224,
  "lat": 27.7492159,
  "lon": 85.3470799,
  "tags": {
    "addr:city": "kathmandu",
    "addr:street": "Golfutar Residential Road",
    "amenity": "cafe",
    "cuisine": "regional",
    "internet_access": "no",
    "name": "sekuwa corner",
    "smoking": "separated",
    "wheelchair": "limited"
  }
},
{
  "type": "node",
  "id": 3072768284,
  "lat": 27.7192909,
  "lon": 85.3310146,
  "tags": {
    "amenity": "restaurant",
    "cuisine": "indian",
    "name": "Hydrabadi House",
    "opening_hours": "Mo-Su 11:00-22:00",
    "phone": "014443839"
  }
},
{
  "type": "node",
  "id": 3072782081,
  "lat": 27.6636018,
  "lon": 85.3363887,
  "tags": {
    "amenity": "restaurant",
    "name": "ला हीट क्याफे",
    "name:en": "LA Heat Cafe",
    "name:ne": "ला हीट क्याफे"
  }
},
{
  "type": "node",
  "id": 3072783191,
  "lat": 27.6642527,
  "lon": 85.3365925,
  "tags": {
    "amenity": "restaurant",
    "name": "गोरखा रेष्टुरेन्ट",
    "name:en": "Gurkha Resturant",
    "name:ne": "गोरखा रेष्टुरेन्ट"
  }
},
{
  "type": "node",
  "id": 3072783382,
  "lat": 27.7313219,
  "lon": 85.3491615,
  "tags": {
    "amenity": "cafe",
    "name": "CS sekuwa"
  }
},